test_number,stageinflight,time(s),ax(ms2),ay(ms2),az(ms2),gx(deg/s),gy(deg/s),gz(deg/s),pitch_error(deg),roll_error(deg),yaw_error(deg),m0_output(pwm),m1_output(pwm),m2_output(pwm),m3_output(pwm)
3, 1, 56.16, -0.66, 0.25, 9.61, 0.00, -0.00, -0.00, -0.01, -0.03, 0.00, 1003.89, 1007.52, 1004.10, 1012.49
3, 1, 56.17, -0.64, 0.24, 9.67, 0.00, -0.00, 0.00, -0.01, -0.03, 0.00, 1003.89, 1007.52, 1004.11, 1012.49
3, 1, 56.17, -0.58, 0.24, 9.67, 0.00, 0.00, 0.00, -0.01, -0.03, 0.00, 1003.89, 1007.52, 1004.11, 1012.49
3, 1, 56.17, -0.66, 0.18, 9.72, 0.00, -0.00, 0.00, -0.01, -0.03, 0.00, 1003.89, 1007.52, 1004.10, 1012.48
3, 1, 56.18, -0.68, 0.24, 9.71, -0.00, 0.00, 0.00, -0.01, -0.03, 0.00, 1002.88, 1006.52, 1003.11, 1011.49
3, 1, 56.18, -0.64, 0.18, 9.66, 0.00, 0.00, 0.00, -0.01, -0.03, 0.00, 1002.88, 1006.53, 1003.11, 1011.48
3, 1, 56.19, -0.67, 0.17, 9.77, 0.00, -0.00, -0.00, -0.01, -0.03, 0.00, 1002.89, 1006.53, 1003.11, 1011.48
3, 1, 56.19, -0.66, 0.26, 9.69, -0.00, 0.00, 0.00, -0.01, -0.03, 0.00, 1002.88, 1006.52, 1003.11, 1011.49
3, 1, 56.19, -0.63, 0.27, 9.75, 0.00, -0.00, 0.00, -0.01, -0.03, 0.00, 1002.88, 1006.52, 1003.11, 1011.49
3, 1, 56.20, -0.71, 0.20, 9.76, 0.00, 0.00, 0.00, -0.01, -0.03, 0.00, 1002.88, 1006.53, 1003.11, 1011.49
3, 1, 56.20, -0.64, 0.25, 9.67, -0.00, -0.00, 0.00, -0.01, -0.03, 0.00, 1002.88, 1006.53, 1003.11, 1011.48
3, 1, 56.21, -0.65, 0.21, 9.67, 0.00, 0.00, -0.00, -0.01, -0.03, 0.00, 1002.88, 1006.53, 1003.11, 1011.48
3, 1, 56.21, -0.65, 0.20, 9.64, 0.00, -0.00, 0.00, -0.01, -0.03, 0.00, 1002.88, 1006.53, 1003.11, 1011.48
3, 1, 56.21, -0.64, 0.19, 9.68, 0.00, 0.00, -0.00, -0.01, -0.03, 0.00, 1002.88, 1006.53, 1003.11, 1011.48
3, 1, 56.22, -0.70, 0.24, 9.72, -0.00, 0.00, -0.00, -0.01, -0.03, 0.00, 1003.88, 1007.53, 1004.11, 1012.49
3, 1, 56.22, -0.71, 0.23, 9.69, -0.00, -0.00, 0.00, -0.01, -0.03, 0.00, 1003.87, 1007.53, 1004.11, 1012.49
3, 1, 56.22, -0.67, 0.23, 9.68, 0.00, 0.00, -0.00, -0.01, -0.03, 0.00, 1003.88, 1007.53, 1004.11, 1012.49
3, 1, 56.23, -0.68, 0.28, 9.65, -0.00, 0.00, 0.00, -0.01, -0.03, 0.00, 1003.87, 1007.53, 1004.11, 1012.49
3, 1, 56.23, -0.67, 0.26, 9.66, 0.00, 0.00, 0.00, -0.01, -0.03, 0.00, 1003.87, 1007.53, 1004.11, 1012.49
3, 1, 56.24, -0.61, 0.24, 9.71, 0.00, -0.00, -0.00, -0.01, -0.03, 0.00, 1002.88, 1006.53, 1003.11, 1011.49
3, 1, 56.24, -0.66, 0.26, 9.65, -0.00, 0.00, 0.00, -0.01, -0.03, 0.00, 1002.87, 1006.53, 1003.10, 1011.49
3, 1, 56.25, -0.60, 0.24, 9.73, -0.00, -0.00, 0.00, -0.01, -0.03, 0.00, 1002.87, 1006.53, 1003.11, 1011.49
3, 1, 56.25, -0.63, 0.18, 9.62, -0.00, -0.00, 0.00, -0.01, -0.03, 0.00, 1002.87, 1006.54, 1003.10, 1011.49
3, 1, 56.26, -0.64, 0.21, 9.65, 0.00, 0.00, -0.00, -0.01, -0.03, 0.00, 1003.87, 1007.53, 1004.10, 1012.49
3, 1, 56.26, -0.63, 0.24, 9.65, -0.00, 0.00, 0.00, -0.01, -0.03, 0.00, 1003.87, 1007.53, 1004.10, 1012.49
3, 1, 56.27, -0.66, 0.24, 9.70, 0.00, -0.00, 0.00, -0.01, -0.03, 0.00, 1003.87, 1007.54, 1004.10, 1012.49
3, 1, 56.27, -0.66, 0.24, 9.72, 0.00, 0.00, -0.00, -0.01, -0.03, 0.00, 1003.87, 1007.53, 1004.10, 1012.49
3, 1, 56.27, -0.64, 0.24, 9.67, -0.00, 0.00, 0.00, -0.01, -0.03, 0.00, 1003.87, 1007.54, 1004.11, 1012.49
3, 1, 56.28, -0.64, 0.21, 9.68, 0.00, -0.00, -0.00, -0.01, -0.03, 0.00, 1002.87, 1006.54, 1003.10, 1011.49
3, 1, 56.28, -0.62, 0.26, 9.73, -0.00, 0.00, -0.00, -0.01, -0.03, 0.00, 1002.87, 1006.53, 1003.11, 1011.49
3, 1, 56.29, -0.65, 0.21, 9.68, 0.00, -0.00, 0.00, -0.01, -0.03, 0.00, 1002.87, 1006.54, 1003.11, 1011.49
3, 1, 56.29, -0.62, 0.19, 9.76, -0.00, -0.00, -0.00, -0.01, -0.03, 0.00, 1002.87, 1006.53, 1003.10, 1011.49
3, 1, 56.29, -0.66, 0.27, 9.64, 0.00, -0.00, 0.00, -0.01, -0.03, 0.00, 1002.87, 1006.53, 1003.11, 1011.50
3, 1, 56.30, -0.57, 0.24, 9.70, -0.00, 0.00, 0.00, -0.01, -0.03, 0.00, 1002.87, 1006.53, 1003.11, 1011.49
3, 1, 56.30, -0.65, 0.18, 9.71, -0.00, -0.00, 0.00, -0.01, -0.03, 0.00, 1002.87, 1006.54, 1003.11, 1011.49
3, 1, 56.31, -0.63, 0.23, 9.68, -0.00, -0.00, 0.00, -0.01, -0.03, 0.00, 1002.87, 1006.54, 1003.11, 1011.49
3, 1, 56.31, -0.61, 0.24, 9.62, -0.00, 0.00, -0.00, -0.01, -0.03, 0.00, 1002.87, 1006.53, 1003.11, 1011.49
3, 1, 56.31, -0.67, 0.22, 9.68, -0.00, -0.00, 0.00, -0.01, -0.03, 0.00, 1002.87, 1006.54, 1003.11, 1011.49
3, 1, 56.32, -0.66, 0.16, 9.74, -0.00, 0.00, -0.00, -0.01, -0.03, 0.00, 1003.87, 1007.54, 1004.10, 1012.49
3, 1, 56.32, -0.62, 0.15, 9.71, 0.00, 0.00, -0.00, -0.01, -0.03, 0.00, 1003.87, 1007.54, 1004.10, 1012.49
3, 1, 56.33, -0.63, 0.22, 9.73, -0.00, 0.00, 0.00, -0.01, -0.03, 0.00, 1003.87, 1007.54, 1004.11, 1012.49
3, 1, 56.33, -0.59, 0.20, 9.64, 0.00, -0.00, -0.00, -0.01, -0.03, 0.00, 1003.87, 1007.53, 1004.11, 1012.49
3, 1, 56.33, -0.63, 0.19, 9.64, -0.00, -0.00, 0.00, -0.01, -0.03, 0.00, 1003.87, 1007.54, 1004.11, 1012.49
3, 1, 56.34, -0.61, 0.17, 9.74, -0.00, 0.00, 0.00, -0.01, -0.03, 0.00, 1002.87, 1006.54, 1003.11, 1011.49
3, 1, 56.34, -0.62, 0.17, 9.66, -0.00, -0.00, -0.00, -0.01, -0.03, 0.00, 1002.87, 1006.54, 1003.10, 1011.49
3, 1, 56.35, -0.68, 0.21, 9.71, -0.00, -0.00, 0.00, -0.01, -0.03, 0.00, 1002.87, 1006.54, 1003.10, 1011.49
3, 1, 56.35, -0.62, 0.25, 9.69, -0.00, -0.00, -0.00, -0.01, -0.03, 0.00, 1002.87, 1006.53, 1003.11, 1011.49
3, 1, 56.35, -0.62, 0.19, 9.64, -0.00, 0.00, 0.00, -0.01, -0.03, 0.00, 1002.87, 1006.54, 1003.10, 1011.49
3, 1, 56.36, -0.66, 0.21, 9.67, -0.00, 0.00, -0.00, -0.01, -0.03, 0.00, 1002.87, 1006.54, 1003.10, 1011.49
3, 1, 56.36, -0.62, 0.22, 9.73, -0.00, 0.00, 0.00, -0.01, -0.03, 0.00, 1002.87, 1006.54, 1003.10, 1011.49
3, 1, 56.37, -0.62, 0.21, 9.68, 0.00, 0.00, -0.00, -0.01, -0.03, 0.00, 1002.87, 1006.54, 1003.10, 1011.49
3, 1, 56.37, -0.62, 0.23, 9.69, 0.00, -0.00, -0.00, -0.01, -0.03, 0.00, 1002.87, 1006.54, 1003.10, 1011.49
3, 1, 56.37, -0.61, 0.24, 9.68, -0.00, 0.00, -0.00, -0.01, -0.03, 0.00, 1002.87, 1006.54, 1003.10, 1011.49
3, 1, 56.38, -0.65, 0.22, 9.70, -0.00, -0.00, -0.00, -0.01, -0.03, 0.00, 1002.87, 1006.54, 1003.10, 1011.49
3, 1, 56.38, -0.64, 0.24, 9.66, -0.00, 0.00, 0.00, -0.01, -0.03, 0.00, 1002.87, 1006.54, 1003.10, 1011.49
3, 1, 56.39, -0.69, 0.23, 9.73, 0.00, 0.00, 0.00, -0.01, -0.03, 0.00, 1002.87, 1006.54, 1003.10, 1011.49
3, 1, 56.39, -0.66, 0.19, 9.65, -0.00, -0.00, 0.00, -0.01, -0.03, 0.00, 1002.87, 1006.54, 1003.10, 1011.49
3, 1, 56.39, -0.64, 0.25, 9.69, -0.00, -0.00, -0.00, -0.01, -0.03, 0.00, 1002.87, 1006.54, 1003.10, 1011.49
3, 1, 56.40, -0.65, 0.24, 9.67, -0.00, -0.00, 0.00, -0.01, -0.03, 0.00, 1002.87, 1006.54, 1003.10, 1011.49
3, 1, 56.40, -0.66, 0.22, 9.62, -0.00, 0.00, -0.00, -0.01, -0.03, 0.00, 1002.87, 1006.54, 1003.10, 1011.49
3, 1, 56.41, -0.65, 0.22, 9.75, 0.00, -0.00, -0.00, -0.01, -0.03, 0.00, 1002.87, 1006.54, 1003.10, 1011.49
3, 1, 56.41, -0.62, 0.18, 9.73, -0.00, -0.00, -0.00, -0.01, -0.03, 0.00, 1002.88, 1006.54, 1003.10, 1011.49
3, 1, 56.41, -0.67, 0.19, 9.68, -0.00, 0.00, 0.00, -0.01, -0.03, 0.00, 1002.87, 1006.54, 1003.09, 1011.49
3, 1, 56.42, -0.65, 0.19, 9.73, 0.00, 0.00, 0.00, -0.01, -0.03, 0.00, 1003.87, 1007.54, 1004.10, 1012.49
3, 1, 56.42, -0.63, 0.18, 9.63, 0.00, 0.00, 0.00, -0.01, -0.03, 0.00, 1003.87, 1007.54, 1004.10, 1012.49
3, 1, 56.43, -0.62, 0.21, 9.75, -0.00, -0.00, -0.00, -0.01, -0.03, 0.00, 1003.87, 1007.54, 1004.10, 1012.49
3, 1, 56.43, -0.59, 0.23, 9.72, 0.00, -0.00, 0.00, -0.01, -0.03, 0.00, 1003.87, 1007.54, 1004.10, 1012.49
3, 1, 56.43, -0.63, 0.28, 9.68, -0.00, 0.00, 0.00, -0.01, -0.03, 0.00, 1003.87, 1007.54, 1004.10, 1012.49
3, 1, 56.44, -0.62, 0.24, 9.62, 0.00, -0.00, -0.00, -0.01, -0.03, 0.00, 1002.87, 1006.54, 1003.10, 1011.49
3, 1, 56.44, -0.65, 0.19, 9.74, 0.00, -0.00, 0.00, -0.01, -0.03, 0.00, 1002.87, 1006.54, 1003.10, 1011.49
3, 1, 56.45, -0.63, 0.20, 9.76, -0.00, 0.00, 0.00, -0.01, -0.03, 0.00, 1002.87, 1006.54, 1003.10, 1011.49
3, 1, 56.45, -0.64, 0.28, 9.72, 0.00, -0.00, 0.00, -0.01, -0.03, 0.00, 1002.87, 1006.54, 1003.10, 1011.49
3, 1, 56.45, -0.67, 0.25, 9.69, 0.00, 0.00, 0.00, -0.01, -0.03, 0.00, 1002.86, 1006.54, 1003.10, 1011.49
3, 1, 56.46, -0.63, 0.18, 9.63, 0.00, -0.00, -0.00, -0.01, -0.03, 0.00, 1003.87, 1007.54, 1004.10, 1012.49
3, 1, 56.46, -0.65, 0.19, 9.72, 0.00, 0.00, -0.00, -0.01, -0.03, 0.00, 1003.87, 1007.54, 1004.10, 1012.49
3, 1, 56.47, -0.68, 0.15, 9.67, 0.00, 0.00, -0.00, -0.01, -0.03, 0.00, 1003.87, 1007.55, 1004.10, 1012.49
3, 1, 56.47, -0.64, 0.23, 9.72, -0.00, -0.00, 0.00, -0.01, -0.03, 0.00, 1003.87, 1007.54, 1004.10, 1012.49
3, 1, 56.47, -0.65, 0.21, 9.66, 0.00, 0.00, 0.00, -0.01, -0.03, 0.00, 1003.87, 1007.54, 1004.10, 1012.49
3, 1, 56.48, -0.59, 0.20, 9.60, 0.00, -0.00, -0.00, -0.01, -0.03, 0.00, 1002.87, 1006.54, 1003.10, 1011.49
3, 1, 56.48, -0.66, 0.20, 9.71, 0.00, -0.00, 0.00, -0.01, -0.03, 0.00, 1002.86, 1006.54, 1003.10, 1011.49
3, 1, 56.49, -0.70, 0.25, 9.68, -0.00, 0.00, 0.00, -0.01, -0.03, 0.00, 1002.86, 1006.54, 1003.10, 1011.49
3, 1, 56.49, -0.62, 0.29, 9.68, -0.00, 0.00, 0.00, -0.01, -0.03, 0.00, 1002.86, 1006.54, 1003.10, 1011.49
3, 1, 56.49, -0.70, 0.19, 9.68, -0.00, -0.00, -0.00, -0.01, -0.03, 0.00, 1002.87, 1006.55, 1003.10, 1011.49
3, 1, 56.50, -0.68, 0.23, 9.68, 0.00, -0.00, 0.00, -0.01, -0.03, 0.00, 1002.87, 1006.55, 1003.10, 1011.49
3, 1, 56.50, -0.68, 0.19, 9.67, -0.00, -0.00, 0.00, -0.01, -0.03, 0.00, 1002.87, 1006.55, 1003.10, 1011.48
3, 1, 56.51, -0.63, 0.24, 9.66, 0.00, 0.00, 0.00, -0.01, -0.03, 0.00, 1002.87, 1006.55, 1003.10, 1011.48
3, 1, 56.51, -0.67, 0.20, 9.76, 0.00, 0.00, 0.00, -0.01, -0.03, 0.00, 1002.86, 1006.55, 1003.10, 1011.48
3, 1, 56.51, -0.62, 0.19, 9.70, -0.00, -0.00, -0.00, -0.01, -0.03, 0.00, 1002.87, 1006.55, 1003.10, 1011.48
3, 1, 56.52, -0.68, 0.20, 9.72, 0.00, -0.00, 0.00, -0.01, -0.03, 0.00, 1003.86, 1007.55, 1004.10, 1012.48
3, 1, 56.52, -0.66, 0.12, 9.64, -0.00, 0.00, -0.00, -0.01, -0.03, 0.00, 1003.87, 1007.55, 1004.10, 1012.48
3, 1, 56.53, -0.62, 0.25, 9.63, -0.00, -0.00, -0.00, -0.01, -0.03, 0.00, 1003.86, 1007.55, 1004.10, 1012.48
3, 1, 56.53, -0.71, 0.24, 9.72, -0.00, 0.00, 0.00, -0.01, -0.03, 0.00, 1003.86, 1007.55, 1004.10, 1012.49
3, 1, 56.53, -0.63, 0.23, 9.72, 0.00, -0.00, -0.00, -0.01, -0.03, 0.00, 1003.87, 1007.55, 1004.10, 1012.48
3, 1, 56.54, -0.61, 0.19, 9.78, -0.00, 0.00, 0.00, -0.01, -0.03, 0.00, 1003.87, 1007.55, 1004.10, 1012.48
3, 1, 56.54, -0.66, 0.21, 9.72, -0.00, 0.00, -0.00, -0.01, -0.03, 0.00, 1003.87, 1007.55, 1004.10, 1012.49
3, 1, 56.55, -0.62, 0.20, 9.68, -0.00, 0.00, 0.00, -0.01, -0.03, 0.00, 1003.87, 1007.55, 1004.10, 1012.48
3, 1, 56.55, -0.71, 0.21, 9.65, 0.00, -0.00, -0.00, -0.01, -0.03, 0.00, 1003.87, 1007.55, 1004.09, 1012.49
3, 1, 56.55, -0.65, 0.14, 9.67, 0.00, -0.00, 0.00, -0.01, -0.03, 0.00, 1003.87, 1007.55, 1004.10, 1012.48
3, 1, 56.56, -0.65, 0.22, 9.62, -0.00, 0.00, 0.00, -0.01, -0.03, 0.00, 1002.87, 1006.55, 1003.10, 1011.49
3, 1, 56.56, -0.71, 0.20, 9.69, -0.00, -0.00, 0.00, -0.01, -0.03, 0.00, 1002.87, 1006.55, 1003.10, 1011.49
3, 1, 56.57, -0.66, 0.26, 9.67, 0.00, 0.00, -0.00, -0.01, -0.03, 0.00, 1002.86, 1006.55, 1003.10, 1011.49
3, 1, 56.57, -0.59, 0.18, 9.74, -0.00, -0.00, 0.00, -0.01, -0.03, 0.00, 1002.87, 1006.55, 1003.10, 1011.48
3, 1, 56.57, -0.63, 0.23, 9.62, -0.00, -0.00, 0.00, -0.01, -0.03, 0.00, 1002.86, 1006.55, 1003.10, 1011.48
3, 1, 56.58, -0.56, 0.17, 9.66, 0.00, 0.00, -0.00, -0.01, -0.03, 0.00, 1003.87, 1007.55, 1004.10, 1012.48
3, 1, 56.58, -0.68, 0.20, 9.68, -0.00, 0.00, 0.00, -0.01, -0.03, 0.00, 1003.86, 1007.56, 1004.10, 1012.48
3, 1, 56.59, -0.63, 0.23, 9.65, 0.00, 0.00, 0.00, -0.01, -0.03, 0.00, 1003.86, 1007.55, 1004.10, 1012.48
3, 1, 56.59, -0.64, 0.18, 9.63, 0.00, -0.00, 0.00, -0.01, -0.03, 0.00, 1003.86, 1007.55, 1004.10, 1012.48
3, 1, 56.59, -0.65, 0.20, 9.62, 0.00, -0.00, 0.00, -0.01, -0.03, 0.00, 1003.86, 1007.55, 1004.10, 1012.48
3, 1, 56.60, -0.64, 0.20, 9.67, -0.00, 0.00, -0.00, -0.01, -0.03, 0.00, 1002.86, 1006.55, 1003.10, 1011.48
3, 1, 56.60, -0.62, 0.19, 9.77, -0.00, 0.00, -0.00, -0.01, -0.03, 0.00, 1002.87, 1006.55, 1003.10, 1011.48
3, 1, 56.61, -0.69, 0.20, 9.59, 0.00, 0.00, 0.00, -0.01, -0.03, 0.00, 1002.86, 1006.55, 1003.10, 1011.49
3, 1, 56.61, -0.60, 0.25, 9.66, 0.00, 0.00, 0.00, -0.01, -0.03, 0.00, 1002.86, 1006.55, 1003.10, 1011.49
3, 1, 56.61, -0.67, 0.18, 9.72, 0.00, 0.00, 0.00, -0.01, -0.03, 0.00, 1002.86, 1006.56, 1003.10, 1011.48
3, 1, 56.62, -0.64, 0.25, 9.69, -0.00, 0.00, -0.00, -0.01, -0.03, 0.00, 1003.86, 1007.55, 1004.10, 1012.49
3, 1, 56.62, -0.68, 0.23, 9.67, 0.00, -0.00, 0.00, -0.01, -0.03, 0.00, 1003.86, 1007.55, 1004.10, 1012.49
3, 1, 56.63, -0.69, 0.23, 9.68, 0.00, 0.00, 0.00, -0.01, -0.03, 0.00, 1003.85, 1007.56, 1004.10, 1012.49
3, 1, 56.63, -0.70, 0.26, 9.70, 0.00, 0.00, 0.00, -0.01, -0.03, 0.00, 1003.85, 1007.56, 1004.11, 1012.49
3, 1, 56.63, -0.68, 0.23, 9.74, -0.00, 0.00, -0.00, -0.01, -0.03, 0.00, 1003.85, 1007.56, 1004.10, 1012.49
3, 1, 56.64, -0.66, 0.22, 9.72, -0.00, -0.00, 0.00, -0.01, -0.03, 0.00, 1002.85, 1006.56, 1003.11, 1011.49
3, 1, 56.64, -0.71, 0.28, 9.67, 0.00, 0.00, 0.00, -0.01, -0.03, 0.00, 1002.85, 1006.56, 1003.11, 1011.49
3, 1, 56.65, -0.61, 0.15, 9.75, -0.00, 0.00, 0.00, -0.01, -0.03, 0.00, 1002.85, 1006.56, 1003.10, 1011.48
3, 1, 56.65, -0.64, 0.17, 9.67, -0.00, -0.00, 0.00, -0.01, -0.03, 0.00, 1002.85, 1006.56, 1003.10, 1011.48
3, 1, 56.65, -0.63, 0.28, 9.70, 0.00, -0.00, -0.00, -0.01, -0.03, 0.00, 1002.85, 1006.56, 1003.11, 1011.48
3, 1, 56.66, -0.68, 0.21, 9.70, -0.00, 0.00, -0.00, -0.01, -0.03, 0.00, 1002.85, 1006.56, 1003.10, 1011.49
3, 1, 56.66, -0.67, 0.21, 9.62, 0.00, -0.00, 0.00, -0.01, -0.03, 0.00, 1002.85, 1006.56, 1003.10, 1011.48
3, 1, 56.67, -0.63, 0.19, 9.72, -0.00, 0.00, -0.00, -0.01, -0.03, 0.00, 1002.85, 1006.56, 1003.10, 1011.48
3, 1, 56.67, -0.69, 0.19, 9.68, 0.00, -0.00, 0.00, -0.01, -0.03, 0.00, 1002.85, 1006.57, 1003.10, 1011.48
3, 1, 56.67, -0.56, 0.17, 9.74, -0.00, 0.00, -0.00, -0.01, -0.03, 0.00, 1002.86, 1006.56, 1003.11, 1011.48
3, 1, 56.68, -0.65, 0.17, 9.66, -0.00, -0.00, 0.00, -0.01, -0.03, 0.00, 1003.85, 1007.56, 1004.10, 1012.48
3, 1, 56.68, -0.58, 0.17, 9.71, -0.00, 0.00, 0.00, -0.01, -0.03, 0.00, 1003.85, 1007.57, 1004.11, 1012.48
3, 1, 56.69, -0.63, 0.22, 9.68, -0.00, -0.00, 0.00, -0.01, -0.03, 0.00, 1003.85, 1007.57, 1004.11, 1012.48
3, 1, 56.69, -0.69, 0.12, 9.72, -0.00, 0.00, 0.00, -0.01, -0.03, 0.00, 1003.85, 1007.58, 1004.10, 1012.47
3, 1, 56.69, -0.62, 0.16, 9.64, 0.00, 0.00, 0.00, -0.01, -0.03, 0.00, 1003.85, 1007.57, 1004.11, 1012.47
3, 1, 56.70, -0.66, 0.24, 9.68, -0.00, -0.00, 0.00, -0.01, -0.03, 0.00, 1002.84, 1006.57, 1003.11, 1011.48
3, 1, 56.70, -0.63, 0.21, 9.68, -0.00, -0.00, -0.00, -0.01, -0.03, 0.00, 1002.85, 1006.57, 1003.11, 1011.47
3, 1, 56.71, -0.65, 0.22, 9.70, 0.00, -0.00, -0.00, -0.01, -0.03, 0.00, 1002.85, 1006.57, 1003.11, 1011.48
3, 1, 56.71, -0.67, 0.23, 9.71, -0.00, -0.00, -0.00, -0.01, -0.03, 0.00, 1002.85, 1006.57, 1003.11, 1011.48
3, 1, 56.71, -0.65, 0.25, 9.67, -0.00, 0.00, -0.00, -0.01, -0.03, 0.00, 1002.85, 1006.56, 1003.11, 1011.48
3, 1, 56.72, -0.63, 0.21, 9.67, -0.00, 0.00, 0.00, -0.01, -0.03, 0.00, 1002.85, 1006.57, 1003.11, 1011.48
3, 1, 56.72, -0.65, 0.23, 9.69, -0.00, -0.00, -0.00, -0.01, -0.03, 0.00, 1002.85, 1006.57, 1003.11, 1011.48
3, 1, 56.73, -0.68, 0.26, 9.65, 0.00, -0.00, 0.00, -0.01, -0.03, 0.00, 1002.85, 1006.57, 1003.11, 1011.48
3, 1, 56.73, -0.64, 0.24, 9.67, -0.00, 0.00, 0.00, -0.01, -0.03, 0.00, 1002.85, 1006.57, 1003.11, 1011.48
3, 1, 56.73, -0.70, 0.22, 9.69, 0.00, 0.00, -0.00, -0.01, -0.03, 0.00, 1002.84, 1006.57, 1003.11, 1011.48
3, 1, 56.74, -0.65, 0.18, 9.72, -0.00, 0.00, 0.00, -0.01, -0.03, 0.00, 1002.85, 1006.57, 1003.11, 1011.47
3, 1, 56.74, -0.68, 0.17, 9.72, 0.00, -0.00, 0.00, -0.01, -0.03, 0.00, 1002.84, 1006.57, 1003.11, 1011.48
3, 1, 56.75, -0.60, 0.21, 9.66, -0.00, 0.00, -0.00, -0.01, -0.03, 0.00, 1002.84, 1006.57, 1003.11, 1011.48
3, 1, 56.75, -0.59, 0.24, 9.67, 0.00, -0.00, -0.00, -0.01, -0.03, 0.00, 1002.84, 1006.57, 1003.11, 1011.48
3, 1, 56.75, -0.66, 0.19, 9.66, -0.00, 0.00, -0.00, -0.01, -0.03, 0.00, 1002.84, 1006.57, 1003.10, 1011.48
3, 1, 56.76, -0.63, 0.23, 9.68, -0.00, -0.00, -0.00, -0.01, -0.03, 0.00, 1003.85, 1007.57, 1004.11, 1012.48
3, 1, 56.77, -0.68, 0.23, 9.69, -0.00, 0.00, 0.00, -0.01, -0.03, 0.00, 1003.84, 1007.57, 1004.10, 1012.48
3, 1, 56.77, -0.64, 0.22, 9.71, -0.00, 0.00, 0.00, -0.01, -0.03, 0.00, 1003.84, 1007.57, 1004.11, 1012.48
3, 1, 56.78, -0.71, 0.23, 9.70, 0.00, -0.00, -0.00, -0.01, -0.03, 0.00, 1003.84, 1007.57, 1004.10, 1012.48
3, 1, 56.78, -0.64, 0.20, 9.70, 0.00, 0.00, -0.00, -0.01, -0.03, 0.00, 1003.84, 1007.57, 1004.10, 1012.48
3, 1, 56.78, -0.62, 0.19, 9.64, 0.00, -0.00, 0.00, -0.01, -0.03, 0.00, 1003.84, 1007.57, 1004.11, 1012.48
3, 1, 56.79, -0.64, 0.22, 9.76, -0.00, -0.00, 0.00, -0.01, -0.03, 0.00, 1003.84, 1007.57, 1004.11, 1012.48
3, 1, 56.79, -0.66, 0.27, 9.69, 0.00, -0.00, 0.00, -0.01, -0.03, 0.00, 1003.84, 1007.57, 1004.11, 1012.48
3, 1, 56.79, -0.63, 0.17, 9.66, -0.00, 0.00, -0.00, -0.01, -0.03, 0.00, 1002.84, 1006.57, 1003.10, 1011.48
3, 1, 56.80, -0.67, 0.20, 9.66, 0.00, -0.00, 0.00, -0.01, -0.03, 0.00, 1002.84, 1006.57, 1003.10, 1011.48
3, 1, 56.80, -0.64, 0.25, 9.72, 0.00, 0.00, -0.00, -0.01, -0.03, 0.00, 1002.84, 1006.57, 1003.11, 1011.48
3, 1, 56.81, -0.57, 0.21, 9.76, -0.00, -0.00, -0.00, -0.01, -0.03, 0.00, 1002.85, 1006.57, 1003.11, 1011.48
3, 1, 56.81, -0.63, 0.21, 9.76, 0.00, -0.00, -0.00, -0.01, -0.03, 0.00, 1002.84, 1006.57, 1003.10, 1011.48
3, 1, 56.81, -0.62, 0.21, 9.75, 0.00, -0.00, -0.00, -0.01, -0.03, 0.00, 1002.85, 1006.57, 1003.10, 1011.48
3, 1, 56.82, -0.68, 0.18, 9.69, 0.00, 0.00, 0.00, -0.01, -0.03, 0.00, 1002.84, 1006.57, 1003.10, 1011.48
3, 1, 56.82, -0.65, 0.27, 9.66, -0.00, -0.00, -0.00, -0.01, -0.03, 0.00, 1002.84, 1006.57, 1003.10, 1011.49
3, 1, 56.83, -0.61, 0.19, 9.66, 0.00, -0.00, 0.00, -0.01, -0.03, 0.00, 1002.85, 1006.57, 1003.10, 1011.48
3, 1, 56.83, -0.64, 0.24, 9.74, -0.00, 0.00, -0.00, -0.01, -0.03, 0.00, 1002.84, 1006.57, 1003.10, 1011.49
3, 1, 56.83, -0.64, 0.20, 9.69, 0.00, -0.00, 0.00, -0.01, -0.03, 0.00, 1002.84, 1006.57, 1003.10, 1011.48
3, 1, 56.84, -0.60, 0.17, 9.66, -0.00, -0.00, -0.00, -0.01, -0.03, 0.00, 1002.84, 1006.57, 1003.10, 1011.48
3, 1, 56.84, -0.62, 0.23, 9.75, 0.00, 0.00, -0.00, -0.01, -0.03, 0.00, 1002.84, 1006.57, 1003.10, 1011.48
3, 1, 56.85, -0.66, 0.20, 9.70, -0.00, 0.00, 0.00, -0.01, -0.03, 0.00, 1002.84, 1006.58, 1003.10, 1011.48
3, 1, 56.85, -0.62, 0.23, 9.63, 0.00, -0.00, 0.00, -0.01, -0.03, 0.00, 1002.84, 1006.57, 1003.11, 1011.48
3, 1, 56.85, -0.61, 0.22, 9.73, -0.00, -0.00, -0.00, -0.01, -0.03, 0.00, 1002.84, 1006.57, 1003.11, 1011.48
3, 1, 56.86, -0.64, 0.25, 9.60, 0.00, 0.00, 0.00, -0.01, -0.03, 0.00, 1002.84, 1006.57, 1003.10, 1011.48
3, 1, 56.86, -0.67, 0.30, 9.68, -0.00, 0.00, 0.00, -0.01, -0.03, 0.00, 1002.83, 1006.57, 1003.11, 1011.49
3, 1, 56.87, -0.60, 0.19, 9.63, 0.00, 0.00, -0.00, -0.01, -0.03, 0.00, 1002.84, 1006.57, 1003.10, 1011.48
3, 1, 56.87, -0.64, 0.19, 9.63, -0.00, -0.00, 0.00, -0.01, -0.03, 0.00, 1002.84, 1006.58, 1003.10, 1011.49
3, 1, 56.88, -0.60, 0.17, 9.76, -0.00, -0.00, -0.00, -0.01, -0.03, 0.00, 1003.84, 1007.57, 1004.10, 1012.48
3, 1, 56.88, -0.62, 0.19, 9.70, 0.00, 0.00, 0.00, -0.01, -0.03, 0.00, 1003.84, 1007.58, 1004.10, 1012.48
3, 1, 56.88, -0.66, 0.17, 9.67, 0.00, -0.00, 0.00, -0.01, -0.03, 0.00, 1003.84, 1007.58, 1004.10, 1012.48
3, 1, 56.89, -0.65, 0.18, 9.71, -0.00, -0.00, -0.00, -0.01, -0.03, 0.00, 1003.84, 1007.58, 1004.10, 1012.48
3, 1, 56.89, -0.66, 0.20, 9.69, 0.00, 0.00, 0.00, -0.01, -0.03, 0.00, 1003.84, 1007.57, 1004.10, 1012.48
3, 1, 56.90, -0.68, 0.21, 9.63, 0.00, 0.00, -0.00, -0.01, -0.03, 0.00, 1002.84, 1006.57, 1003.10, 1011.49
3, 1, 56.90, -0.60, 0.19, 9.75, 0.00, -0.00, -0.00, -0.01, -0.03, 0.00, 1002.84, 1006.57, 1003.10, 1011.48
3, 1, 56.90, -0.66, 0.20, 9.71, -0.00, 0.00, 0.00, -0.01, -0.03, 0.00, 1002.84, 1006.57, 1003.10, 1011.49
3, 1, 56.91, -0.65, 0.18, 9.71, -0.00, -0.00, 0.00, -0.01, -0.03, 0.00, 1002.84, 1006.57, 1003.10, 1011.48
3, 1, 56.91, -0.58, 0.29, 9.71, -0.00, 0.00, -0.00, -0.01, -0.03, 0.00, 1002.84, 1006.57, 1003.11, 1011.49
3, 1, 56.92, -0.66, 0.23, 9.65, -0.00, -0.00, -0.00, -0.01, -0.03, 0.00, 1002.84, 1006.57, 1003.10, 1011.49
3, 1, 56.92, -0.65, 0.21, 9.67, 0.00, -0.00, -0.00, -0.01, -0.03, 0.00, 1002.84, 1006.57, 1003.10, 1011.49
3, 1, 56.92, -0.64, 0.16, 9.74, 0.00, -0.00, -0.00, -0.01, -0.03, 0.00, 1002.85, 1006.57, 1003.10, 1011.49
3, 1, 56.93, -0.70, 0.19, 9.64, -0.00, 0.00, -0.00, -0.01, -0.03, 0.00, 1002.84, 1006.57, 1003.09, 1011.49
3, 1, 56.93, -0.64, 0.19, 9.67, 0.00, 0.00, -0.00, -0.01, -0.03, 0.00, 1002.85, 1006.57, 1003.10, 1011.49
3, 1, 56.94, -0.62, 0.16, 9.64, 0.00, -0.00, 0.00, -0.01, -0.03, 0.00, 1002.85, 1006.57, 1003.10, 1011.49
3, 1, 56.94, -0.64, 0.19, 9.73, 0.00, 0.00, 0.00, -0.01, -0.03, 0.00, 1002.84, 1006.57, 1003.10, 1011.49
3, 1, 56.94, -0.59, 0.25, 9.72, -0.00, 0.00, 0.00, -0.01, -0.03, 0.00, 1002.84, 1006.56, 1003.10, 1011.49
3, 1, 56.95, -0.71, 0.22, 9.79, -0.00, -0.00, -0.00, -0.01, -0.03, 0.00, 1002.84, 1006.57, 1003.10, 1011.49
3, 1, 56.95, -0.67, 0.18, 9.71, 0.00, -0.00, -0.00, -0.01, -0.03, 0.00, 1002.85, 1006.57, 1003.09, 1011.49
3, 1, 56.96, -0.59, 0.19, 9.67, 0.00, 0.00, 0.00, -0.01, -0.03, 0.00, 1002.85, 1006.56, 1003.10, 1011.49
3, 1, 56.96, -0.73, 0.19, 9.72, -0.00, 0.00, -0.00, -0.01, -0.03, 0.00, 1002.84, 1006.57, 1003.09, 1011.50
3, 1, 56.96, -0.64, 0.28, 9.73, 0.00, -0.00, -0.00, -0.01, -0.03, 0.00, 1002.84, 1006.56, 1003.10, 1011.50
3, 1, 56.97, -0.67, 0.23, 9.68, 0.00, -0.00, -0.00, -0.01, -0.03, 0.00, 1002.84, 1006.56, 1003.09, 1011.50
3, 1, 56.97, -0.66, 0.24, 9.67, 0.00, 0.00, -0.00, -0.01, -0.03, 0.00, 1002.84, 1006.56, 1003.09, 1011.50
3, 1, 56.97, -0.64, 0.21, 9.73, 0.00, 0.00, 0.00, -0.01, -0.03, 0.00, 1003.84, 1007.56, 1004.09, 1012.50
3, 1, 56.98, -0.67, 0.19, 9.71, -0.00, 0.00, 0.00, -0.01, -0.03, 0.00, 1003.84, 1007.57, 1004.09, 1012.50
3, 1, 56.98, -0.64, 0.20, 9.71, -0.00, -0.00, -0.00, -0.01, -0.03, 0.00, 1003.85, 1007.56, 1004.09, 1012.50
3, 1, 56.99, -0.61, 0.23, 9.70, -0.00, -0.00, 0.00, -0.01, -0.03, 0.00, 1003.85, 1007.56, 1004.10, 1012.50
3, 1, 56.99, -0.70, 0.16, 9.69, 0.00, -0.00, -0.00, -0.01, -0.03, 0.00, 1003.85, 1007.57, 1004.09, 1012.50
3, 1, 56.99, -0.61, 0.19, 9.77, -0.00, -0.00, -0.00, -0.01, -0.03, 0.00, 1003.85, 1007.56, 1004.09, 1012.49
3, 1, 57.00, -0.64, 0.21, 9.79, -0.00, -0.00, -0.00, -0.01, -0.03, 0.00, 1003.85, 1007.56, 1004.09, 1012.50
3, 1, 57.00, -0.71, 0.18, 9.66, 0.00, -0.00, -0.00, -0.01, -0.03, 0.00, 1003.85, 1007.56, 1004.09, 1012.50
3, 1, 57.01, -0.65, 0.25, 9.66, 0.00, 0.00, 0.00, -0.01, -0.03, 0.00, 1003.85, 1007.56, 1004.09, 1012.50
3, 1, 57.01, -0.60, 0.21, 9.79, -0.00, -0.00, 0.00, -0.01, -0.03, 0.00, 1003.85, 1007.56, 1004.09, 1012.49
3, 1, 57.01, -0.63, 0.24, 9.69, -0.00, -0.00, 0.00, -0.01, -0.03, 0.00, 1002.85, 1006.56, 1003.09, 1011.50
3, 1, 57.02, -0.64, 0.19, 9.69, 0.00, -0.00, 0.00, -0.01, -0.03, 0.00, 1002.85, 1006.56, 1003.09, 1011.49
3, 1, 57.02, -0.73, 0.19, 9.70, -0.00, 0.00, -0.00, -0.01, -0.03, 0.00, 1002.85, 1006.57, 1003.09, 1011.50
3, 1, 57.03, -0.68, 0.26, 9.70, 0.00, -0.00, 0.00, -0.01, -0.03, 0.00, 1002.84, 1006.56, 1003.09, 1011.50
3, 1, 57.03, -0.66, 0.17, 9.67, 0.00, 0.00, 0.00, -0.01, -0.03, 0.00, 1002.85, 1006.57, 1003.09, 1011.49
3, 1, 57.03, -0.66, 0.19, 9.76, 0.00, 0.00, 0.00, -0.01, -0.03, 0.00, 1003.84, 1007.57, 1004.09, 1012.50
3, 1, 57.04, -0.62, 0.20, 9.69, -0.00, -0.00, 0.00, -0.01, -0.03, 0.00, 1003.85, 1007.57, 1004.10, 1012.49
3, 1, 57.04, -0.64, 0.21, 9.72, -0.00, 0.00, -0.00, -0.01, -0.03, 0.00, 1003.84, 1007.57, 1004.09, 1012.50
3, 1, 57.05, -0.64, 0.18, 9.71, 0.00, 0.00, 0.00, -0.01, -0.03, 0.00, 1003.84, 1007.57, 1004.09, 1012.49
3, 1, 57.05, -0.60, 0.17, 9.66, -0.00, 0.00, -0.00, -0.01, -0.03, 0.00, 1003.85, 1007.57, 1004.09, 1012.49
3, 1, 57.06, -0.66, 0.20, 9.71, -0.00, 0.00, 0.00, -0.01, -0.03, 0.00, 1002.84, 1006.57, 1003.09, 1011.49
3, 1, 57.06, -0.64, 0.23, 9.70, -0.00, 0.00, 0.00, -0.01, -0.03, 0.00, 1002.84, 1006.57, 1003.09, 1011.49
3, 1, 57.06, -0.61, 0.22, 9.77, 0.00, 0.00, -0.00, -0.01, -0.03, 0.00, 1002.84, 1006.57, 1003.09, 1011.49
3, 1, 57.07, -0.62, 0.21, 9.73, -0.00, -0.00, 0.00, -0.01, -0.03, 0.00, 1002.84, 1006.57, 1003.09, 1011.49
3, 1, 57.07, -0.64, 0.24, 9.69, -0.00, 0.00, 0.00, -0.01, -0.03, 0.00, 1002.84, 1006.57, 1003.09, 1011.49
3, 1, 57.08, -0.67, 0.21, 9.70, 0.00, 0.00, 0.00, -0.01, -0.03, 0.00, 1002.84, 1006.58, 1003.09, 1011.49
3, 1, 57.08, -0.61, 0.23, 9.76, -0.00, 0.00, 0.00, -0.01, -0.03, 0.00, 1002.84, 1006.57, 1003.10, 1011.49
3, 1, 57.08, -0.60, 0.18, 9.61, 0.00, -0.00, -0.00, -0.01, -0.03, 0.00, 1002.84, 1006.57, 1003.09, 1011.49
3, 1, 57.09, -0.71, 0.20, 9.75, 0.00, -0.00, -0.00, -0.01, -0.03, 0.00, 1002.84, 1006.58, 1003.09, 1011.49
3, 1, 57.09, -0.70, 0.22, 9.74, 0.00, -0.00, -0.00, -0.01, -0.03, 0.00, 1002.84, 1006.57, 1003.09, 1011.50
3, 1, 57.10, -0.66, 0.18, 9.59, 0.00, -0.00, 0.00, -0.01, -0.03, 0.00, 1002.84, 1006.58, 1003.09, 1011.49
3, 1, 57.10, -0.67, 0.26, 9.69, 0.00, -0.00, 0.00, -0.01, -0.03, 0.00, 1002.83, 1006.57, 1003.10, 1011.49
3, 1, 57.10, -0.63, 0.24, 9.69, 0.00, 0.00, -0.00, -0.01, -0.03, 0.00, 1002.84, 1006.57, 1003.10, 1011.49
3, 1, 57.11, -0.66, 0.22, 9.66, -0.00, 0.00, 0.00, -0.01, -0.03, 0.00, 1002.84, 1006.58, 1003.10, 1011.49
3, 1, 57.11, -0.61, 0.27, 9.71, -0.00, -0.00, -0.00, -0.01, -0.03, 0.00, 1002.84, 1006.57, 1003.10, 1011.49
3, 1, 57.12, -0.64, 0.23, 9.70, -0.00, -0.00, 0.00, -0.01, -0.03, 0.00, 1002.84, 1006.57, 1003.10, 1011.49
3, 1, 57.12, -0.64, 0.22, 9.75, 0.00, 0.00, 0.00, -0.01, -0.03, 0.00, 1002.84, 1006.57, 1003.10, 1011.49
3, 1, 57.12, -0.59, 0.22, 9.64, 0.00, -0.00, 0.00, -0.01, -0.03, 0.00, 1002.84, 1006.57, 1003.10, 1011.49
3, 1, 57.13, -0.63, 0.21, 9.64, -0.00, 0.00, -0.00, -0.01, -0.03, 0.00, 1002.84, 1006.57, 1003.10, 1011.49
3, 1, 57.13, -0.68, 0.27, 9.70, 0.00, 0.00, -0.00, -0.01, -0.03, 0.00, 1002.83, 1006.57, 1003.10, 1011.50
3, 1, 57.13, -0.68, 0.18, 9.73, -0.00, 0.00, 0.00, -0.01, -0.03, 0.00, 1003.84, 1007.58, 1004.09, 1012.49
3, 1, 57.14, -0.60, 0.17, 9.69, -0.00, 0.00, -0.00, -0.01, -0.03, 0.00, 1003.84, 1007.57, 1004.10, 1012.49
3, 1, 57.14, -0.65, 0.23, 9.70, 0.00, 0.00, -0.00, -0.01, -0.03, 0.00, 1003.83, 1007.57, 1004.10, 1012.50
3, 1, 57.15, -0.62, 0.16, 9.74, 0.00, -0.00, -0.00, -0.01, -0.03, 0.00, 1003.84, 1007.57, 1004.09, 1012.49
3, 1, 57.15, -0.61, 0.17, 9.68, 0.00, 0.00, 0.00, -0.01, -0.03, 0.00, 1003.84, 1007.58, 1004.10, 1012.49
3, 1, 57.15, -0.68, 0.26, 9.67, -0.00, -0.00, -0.00, -0.01, -0.03, 0.00, 1002.83, 1006.57, 1003.10, 1011.50
3, 1, 57.16, -0.63, 0.17, 9.60, -0.00, -0.00, 0.00, -0.01, -0.03, 0.00, 1002.84, 1006.57, 1003.09, 1011.49
3, 1, 57.16, -0.65, 0.24, 9.70, 0.00, 0.00, 0.00, -0.01, -0.03, 0.00, 1002.83, 1006.57, 1003.10, 1011.50
3, 1, 57.17, -0.69, 0.21, 9.64, -0.00, -0.00, 0.00, -0.01, -0.03, 0.00, 1002.83, 1006.58, 1003.09, 1011.49
3, 1, 57.17, -0.55, 0.24, 9.75, 0.00, 0.00, -0.00, -0.01, -0.03, 0.00, 1002.84, 1006.57, 1003.10, 1011.49
3, 1, 57.17, -0.67, 0.23, 9.69, -0.00, -0.00, -0.00, -0.01, -0.03, 0.00, 1002.83, 1006.57, 1003.09, 1011.50
3, 1, 57.18, -0.59, 0.22, 9.65, 0.00, 0.00, -0.00, -0.01, -0.03, 0.00, 1002.84, 1006.57, 1003.09, 1011.50
3, 1, 57.18, -0.69, 0.22, 9.80, 0.00, 0.00, 0.00, -0.01, -0.03, 0.00, 1002.83, 1006.57, 1003.09, 1011.50
3, 1, 57.19, -0.66, 0.23, 9.68, -0.00, -0.00, 0.00, -0.01, -0.03, 0.00, 1002.83, 1006.57, 1003.09, 1011.50
3, 1, 57.19, -0.59, 0.25, 9.76, 0.00, -0.00, 0.00, -0.01, -0.03, 0.00, 1002.83, 1006.57, 1003.10, 1011.50
3, 1, 57.19, -0.69, 0.22, 9.63, -0.00, -0.00, 0.00, -0.01, -0.03, 0.00, 1002.83, 1006.58, 1003.10, 1011.50
3, 1, 57.20, -0.63, 0.17, 9.71, -0.00, 0.00, -0.00, -0.01, -0.03, 0.00, 1002.83, 1006.58, 1003.10, 1011.49
3, 1, 57.20, -0.62, 0.20, 9.72, 0.00, -0.00, -0.00, -0.01, -0.03, 0.00, 1002.83, 1006.58, 1003.10, 1011.49
3, 1, 57.21, -0.66, 0.23, 9.68, 0.00, -0.00, 0.00, -0.01, -0.03, 0.00, 1002.83, 1006.58, 1003.10, 1011.50
3, 1, 57.21, -0.57, 0.24, 9.66, -0.00, 0.00, -0.00, -0.01, -0.03, 0.00, 1002.83, 1006.57, 1003.10, 1011.49
3, 1, 57.22, -0.64, 0.23, 9.74, -0.00, -0.00, -0.00, -0.01, -0.03, 0.00, 1003.83, 1007.57, 1004.10, 1012.50
3, 1, 57.22, -0.64, 0.22, 9.73, -0.00, 0.00, -0.00, -0.01, -0.03, 0.00, 1003.83, 1007.57, 1004.09, 1012.50
3, 1, 57.22, -0.59, 0.24, 9.65, 0.00, -0.00, 0.00, -0.01, -0.03, 0.00, 1003.84, 1007.57, 1004.09, 1012.50
3, 1, 57.23, -0.69, 0.23, 9.65, -0.00, -0.00, 0.00, -0.01, -0.03, 0.00, 1003.83, 1007.58, 1004.09, 1012.50
3, 1, 57.23, -0.65, 0.20, 9.74, 0.00, -0.00, -0.00, -0.01, -0.03, 0.00, 1003.83, 1007.58, 1004.09, 1012.50
3, 1, 57.24, -0.68, 0.18, 9.66, 0.00, -0.00, -0.00, -0.01, -0.03, 0.00, 1003.83, 1007.58, 1004.09, 1012.50
3, 1, 57.24, -0.69, 0.19, 9.69, 0.00, -0.00, -0.00, -0.01, -0.03, 0.00, 1003.83, 1007.58, 1004.09, 1012.50
3, 1, 57.24, -0.58, 0.24, 9.75, 0.00, 0.00, -0.00, -0.01, -0.03, 0.00, 1003.83, 1007.57, 1004.10, 1012.50
3, 1, 57.25, -0.63, 0.17, 9.63, -0.00, -0.00, -0.00, -0.01, -0.03, 0.00, 1003.84, 1007.57, 1004.09, 1012.50
3, 1, 57.25, -0.61, 0.22, 9.70, 0.00, -0.00, -0.00, -0.01, -0.03, 0.00, 1003.84, 1007.57, 1004.10, 1012.50
3, 1, 57.26, -0.61, 0.24, 9.65, 0.00, 0.00, -0.00, -0.01, -0.03, 0.00, 1002.84, 1006.56, 1003.10, 1011.50
3, 1, 57.26, -0.63, 0.22, 9.72, -0.00, 0.00, 0.00, -0.01, -0.03, 0.00, 1002.83, 1006.57, 1003.09, 1011.50
3, 1, 57.26, -0.66, 0.25, 9.73, -0.00, 0.00, 0.00, -0.01, -0.03, 0.00, 1002.83, 1006.57, 1003.09, 1011.50
3, 1, 57.27, -0.66, 0.21, 9.70, -0.00, -0.00, 0.00, -0.01, -0.03, 0.00, 1002.83, 1006.57, 1003.09, 1011.50
3, 1, 57.27, -0.66, 0.21, 9.56, -0.00, 0.00, 0.00, -0.01, -0.03, 0.00, 1002.83, 1006.58, 1003.09, 1011.50
3, 1, 57.28, -0.62, 0.21, 9.61, 0.00, -0.00, -0.00, -0.01, -0.03, 0.00, 1002.83, 1006.57, 1003.10, 1011.50
3, 1, 57.28, -0.66, 0.22, 9.71, -0.00, -0.00, 0.00, -0.01, -0.03, 0.00, 1002.83, 1006.57, 1003.10, 1011.50
3, 1, 57.29, -0.65, 0.21, 9.73, -0.00, -0.00, -0.00, -0.01, -0.03, 0.00, 1002.83, 1006.57, 1003.10, 1011.50
3, 1, 57.29, -0.66, 0.19, 9.65, -0.00, 0.00, -0.00, -0.01, -0.03, 0.00, 1002.83, 1006.58, 1003.09, 1011.50
3, 1, 57.30, -0.65, 0.25, 9.66, -0.00, 0.00, 0.00, -0.01, -0.03, 0.00, 1001.83, 1005.57, 1002.10, 1010.50
3, 1, 57.30, -0.63, 0.17, 9.72, -0.00, -0.00, -0.00, -0.01, -0.03, 0.00, 1001.84, 1005.57, 1002.09, 1010.49
3, 1, 57.30, -0.75, 0.22, 9.74, -0.00, -0.00, -0.00, -0.01, -0.03, 0.00, 1001.83, 1005.57, 1002.09, 1010.50
3, 1, 57.31, -0.67, 0.23, 9.78, 0.00, -0.00, 0.00, -0.01, -0.03, 0.00, 1001.84, 1005.57, 1002.09, 1010.50
3, 1, 57.31, -0.66, 0.26, 9.74, 0.00, 0.00, -0.00, -0.01, -0.03, 0.00, 1001.84, 1005.57, 1002.09, 1010.50
3, 1, 57.32, -0.58, 0.19, 9.65, 0.00, 0.00, 0.00, -0.01, -0.03, 0.00, 1002.84, 1006.57, 1003.09, 1011.50
3, 1, 57.32, -0.62, 0.22, 9.64, -0.00, -0.00, -0.00, -0.01, -0.03, 0.00, 1002.84, 1006.57, 1003.09, 1011.50
3, 1, 57.32, -0.68, 0.24, 9.67, 0.00, 0.00, 0.00, -0.01, -0.03, 0.00, 1002.83, 1006.57, 1003.09, 1011.50
3, 1, 57.33, -0.70, 0.20, 9.72, 0.00, 0.00, 0.00, -0.01, -0.03, 0.00, 1002.83, 1006.57, 1003.09, 1011.50
3, 1, 57.33, -0.69, 0.21, 9.71, 0.00, -0.00, -0.00, -0.01, -0.03, 0.00, 1002.83, 1006.57, 1003.09, 1011.50
3, 1, 57.34, -0.67, 0.19, 9.64, -0.00, -0.00, -0.00, -0.01, -0.03, 0.00, 1003.84, 1007.57, 1004.09, 1012.50
3, 1, 57.34, -0.63, 0.22, 9.67, -0.00, 0.00, 0.00, -0.01, -0.03, 0.00, 1003.83, 1007.57, 1004.09, 1012.50
3, 1, 57.34, -0.64, 0.24, 9.70, -0.00, -0.00, 0.00, -0.01, -0.03, 0.00, 1003.83, 1007.57, 1004.09, 1012.50
3, 1, 57.35, -0.66, 0.23, 9.75, 0.00, -0.00, 0.00, -0.01, -0.03, 0.00, 1003.83, 1007.57, 1004.09, 1012.50
3, 1, 57.35, -0.66, 0.20, 9.76, 0.00, -0.00, -0.00, -0.01, -0.03, 0.00, 1003.83, 1007.57, 1004.09, 1012.50
3, 1, 57.36, -0.64, 0.18, 9.68, -0.00, 0.00, -0.00, -0.01, -0.03, 0.00, 1002.84, 1006.57, 1003.09, 1011.50
3, 1, 57.36, -0.58, 0.24, 9.65, 0.00, 0.00, 0.00, -0.01, -0.03, 0.00, 1002.83, 1006.57, 1003.10, 1011.50
3, 1, 57.36, -0.64, 0.24, 9.77, -0.00, -0.00, -0.00, -0.01, -0.03, 0.00, 1002.83, 1006.57, 1003.09, 1011.50
3, 1, 57.37, -0.69, 0.22, 9.74, -0.00, -0.00, 0.00, -0.01, -0.03, 0.00, 1002.83, 1006.57, 1003.09, 1011.50
3, 1, 57.37, -0.63, 0.21, 9.79, 0.00, -0.00, -0.00, -0.01, -0.03, 0.00, 1002.84, 1006.57, 1003.09, 1011.50
3, 1, 57.38, -0.64, 0.20, 9.76, 0.00, 0.00, 0.00, -0.01, -0.03, 0.00, 1002.84, 1006.57, 1003.09, 1011.51
3, 1, 57.38, -0.69, 0.21, 9.69, -0.00, -0.00, 0.00, -0.01, -0.03, 0.00, 1002.84, 1006.57, 1003.09, 1011.51
3, 1, 57.38, -0.59, 0.25, 9.66, 0.00, 0.00, 0.00, -0.01, -0.03, 0.00, 1002.84, 1006.57, 1003.09, 1011.51
3, 1, 57.39, -0.65, 0.19, 9.72, 0.00, -0.00, -0.00, -0.01, -0.03, 0.00, 1002.84, 1006.57, 1003.09, 1011.51
3, 1, 57.39, -0.67, 0.25, 9.72, -0.00, -0.00, 0.00, -0.01, -0.03, 0.00, 1002.83, 1006.57, 1003.09, 1011.51
3, 1, 57.40, -0.66, 0.24, 9.73, 0.00, -0.00, 0.00, -0.01, -0.03, 0.00, 1003.83, 1007.57, 1004.09, 1012.51
3, 1, 57.40, -0.72, 0.20, 9.65, -0.00, -0.00, -0.00, -0.01, -0.03, 0.00, 1003.83, 1007.57, 1004.09, 1012.51
3, 1, 57.40, -0.65, 0.18, 9.75, -0.00, -0.00, -0.00, -0.01, -0.03, 0.00, 1003.84, 1007.57, 1004.09, 1012.50
3, 1, 57.41, -0.67, 0.17, 9.68, -0.00, -0.00, -0.00, -0.01, -0.03, 0.00, 1003.84, 1007.57, 1004.09, 1012.50
3, 1, 57.41, -0.67, 0.19, 9.73, -0.00, 0.00, -0.00, -0.01, -0.03, 0.00, 1003.84, 1007.57, 1004.09, 1012.51
3, 1, 57.42, -0.59, 0.19, 9.67, -0.00, -0.00, -0.00, -0.01, -0.03, 0.00, 1002.85, 1006.56, 1003.09, 1011.50
3, 1, 57.42, -0.63, 0.18, 9.72, -0.00, -0.00, -0.00, -0.01, -0.03, 0.00, 1002.85, 1006.56, 1003.09, 1011.50
3, 1, 57.42, -0.61, 0.24, 9.68, -0.00, 0.00, -0.00, -0.01, -0.03, 0.00, 1002.85, 1006.56, 1003.09, 1011.51
3, 1, 57.43, -0.63, 0.20, 9.67, -0.00, 0.00, -0.00, -0.01, -0.03, 0.00, 1002.85, 1006.56, 1003.08, 1011.51
3, 1, 57.43, -0.68, 0.16, 9.68, -0.00, -0.00, 0.00, -0.01, -0.03, 0.00, 1002.85, 1006.56, 1003.08, 1011.51
3, 1, 57.44, -0.66, 0.24, 9.66, -0.00, -0.00, -0.00, -0.01, -0.03, 0.00, 1003.85, 1007.56, 1004.08, 1012.51
3, 1, 57.44, -0.64, 0.23, 9.71, 0.00, 0.00, -0.00, -0.01, -0.03, 0.00, 1003.85, 1007.56, 1004.08, 1012.51
3, 1, 57.44, -0.68, 0.24, 9.69, 0.00, -0.00, 0.00, -0.01, -0.03, 0.00, 1003.85, 1007.56, 1004.08, 1012.51
3, 1, 57.45, -0.61, 0.23, 9.60, 0.00, 0.00, 0.00, -0.01, -0.03, 0.00, 1003.85, 1007.56, 1004.09, 1012.51
3, 1, 57.45, -0.65, 0.23, 9.64, -0.00, 0.00, -0.00, -0.01, -0.03, 0.00, 1003.85, 1007.56, 1004.08, 1012.51
3, 1, 57.46, -0.61, 0.18, 9.72, -0.00, 0.00, 0.00, -0.01, -0.03, 0.00, 1002.85, 1006.56, 1003.08, 1011.51
3, 1, 57.46, -0.63, 0.19, 9.71, -0.00, 0.00, 0.00, -0.01, -0.03, 0.00, 1002.85, 1006.56, 1003.08, 1011.51
3, 1, 57.46, -0.68, 0.24, 9.58, -0.00, -0.00, 0.00, -0.01, -0.03, 0.00, 1002.84, 1006.56, 1003.08, 1011.51
3, 1, 57.47, -0.63, 0.20, 9.67, -0.00, -0.00, 0.00, -0.01, -0.03, 0.00, 1002.85, 1006.57, 1003.08, 1011.51
3, 1, 57.47, -0.63, 0.22, 9.65, 0.00, -0.00, -0.00, -0.01, -0.03, 0.00, 1002.85, 1006.56, 1003.08, 1011.51
3, 1, 57.48, -0.66, 0.22, 9.68, 0.00, -0.00, 0.00, -0.01, -0.03, 0.00, 1001.84, 1005.57, 1002.08, 1010.51
3, 1, 57.48, -0.65, 0.17, 9.62, -0.00, 0.00, 0.00, -0.01, -0.03, 0.00, 1001.85, 1005.57, 1002.08, 1010.51
3, 1, 57.48, -0.67, 0.21, 9.70, -0.00, -0.00, 0.00, -0.01, -0.03, 0.00, 1001.85, 1005.57, 1002.08, 1010.51
3, 1, 57.49, -0.67, 0.25, 9.67, -0.00, -0.00, -0.00, -0.01, -0.03, 0.00, 1001.85, 1005.56, 1002.08, 1010.51
3, 1, 57.49, -0.62, 0.16, 9.69, -0.00, 0.00, 0.00, -0.01, -0.03, 0.00, 1001.85, 1005.57, 1002.08, 1010.50
3, 1, 57.50, -0.68, 0.17, 9.64, -0.00, 0.00, 0.00, -0.01, -0.03, 0.00, 1002.85, 1006.57, 1003.08, 1011.51
3, 1, 57.50, -0.71, 0.22, 9.67, -0.00, 0.00, -0.00, -0.01, -0.03, 0.00, 1002.84, 1006.57, 1003.07, 1011.51
3, 1, 57.50, -0.68, 0.21, 9.65, 0.00, 0.00, 0.00, -0.01, -0.03, 0.00, 1002.84, 1006.57, 1003.08, 1011.51
3, 1, 57.51, -0.64, 0.26, 9.63, -0.00, -0.00, -0.00, -0.01, -0.03, 0.00, 1002.84, 1006.56, 1003.08, 1011.51
3, 1, 57.51, -0.68, 0.20, 9.75, -0.00, 0.00, -0.00, -0.01, -0.03, 0.00, 1002.85, 1006.57, 1003.07, 1011.51
3, 1, 57.52, -0.67, 0.21, 9.71, 0.00, -0.00, -0.00, -0.01, -0.03, 0.00, 1001.85, 1005.57, 1002.07, 1010.51
3, 1, 57.52, -0.69, 0.25, 9.67, 0.00, -0.00, -0.00, -0.01, -0.03, 0.00, 1001.85, 1005.56, 1002.07, 1010.52
3, 1, 57.52, -0.60, 0.26, 9.70, 0.00, -0.00, -0.00, -0.01, -0.03, 0.00, 1001.85, 1005.56, 1002.08, 1010.51
3, 1, 57.53, -0.66, 0.13, 9.75, -0.00, -0.00, -0.00, -0.01, -0.03, 0.00, 1001.85, 1005.56, 1002.07, 1010.51
3, 1, 57.53, -0.62, 0.20, 9.72, 0.00, 0.00, 0.00, -0.01, -0.03, 0.00, 1001.85, 1005.56, 1002.07, 1010.51
3, 1, 57.54, -0.62, 0.23, 9.66, -0.00, 0.00, 0.00, -0.01, -0.03, 0.00, 1001.85, 1005.56, 1002.07, 1010.51
3, 1, 57.54, -0.67, 0.20, 9.76, -0.00, -0.00, -0.00, -0.01, -0.03, 0.00, 1001.85, 1005.56, 1002.07, 1010.52
3, 1, 57.54, -0.68, 0.18, 9.69, 0.00, 0.00, 0.00, -0.01, -0.03, 0.00, 1001.85, 1005.56, 1002.07, 1010.52
3, 1, 57.55, -0.64, 0.25, 9.73, -0.00, -0.00, -0.00, -0.01, -0.03, 0.00, 1001.85, 1005.56, 1002.07, 1010.52
3, 1, 57.55, -0.66, 0.17, 9.72, -0.00, 0.00, 0.00, -0.01, -0.03, 0.00, 1001.85, 1005.56, 1002.07, 1010.51
3, 1, 57.56, -0.62, 0.22, 9.75, 0.00, 0.00, 0.00, -0.01, -0.03, 0.00, 1001.85, 1005.56, 1002.07, 1010.51
3, 1, 57.56, -0.68, 0.19, 9.66, 0.00, 0.00, -0.00, -0.01, -0.03, 0.00, 1001.85, 1005.56, 1002.07, 1010.52
3, 1, 57.56, -0.66, 0.23, 9.66, 0.00, -0.00, -0.00, -0.01, -0.03, 0.00, 1001.85, 1005.56, 1002.07, 1010.52
3, 1, 57.57, -0.62, 0.21, 9.70, 0.00, 0.00, 0.00, -0.01, -0.03, 0.00, 1001.85, 1005.56, 1002.07, 1010.52
3, 1, 57.57, -0.70, 0.21, 9.65, 0.00, -0.00, -0.00, -0.01, -0.03, 0.00, 1001.85, 1005.56, 1002.07, 1010.52
3, 1, 57.58, -0.65, 0.15, 9.82, -0.00, -0.00, -0.00, -0.01, -0.03, 0.00, 1001.85, 1005.56, 1002.07, 1010.52
3, 1, 57.58, -0.64, 0.27, 9.64, -0.00, -0.00, 0.00, -0.01, -0.03, 0.00, 1001.85, 1005.56, 1002.07, 1010.52
3, 1, 57.58, -0.67, 0.19, 9.70, -0.00, 0.00, -0.00, -0.01, -0.03, 0.00, 1001.85, 1005.56, 1002.07, 1010.52
3, 1, 57.59, -0.62, 0.22, 9.76, 0.00, 0.00, 0.00, -0.01, -0.03, 0.00, 1001.85, 1005.56, 1002.07, 1010.52
3, 1, 57.59, -0.62, 0.19, 9.70, 0.00, -0.00, 0.00, -0.01, -0.03, 0.00, 1001.85, 1005.56, 1002.07, 1010.52
3, 1, 57.60, -0.68, 0.20, 9.79, -0.00, -0.00, -0.00, -0.01, -0.03, 0.00, 1002.85, 1006.56, 1003.07, 1011.52
3, 1, 57.60, -0.59, 0.20, 9.71, 0.00, 0.00, 0.00, -0.01, -0.03, 0.00, 1002.85, 1006.56, 1003.07, 1011.51
3, 1, 57.60, -0.70, 0.23, 9.75, 0.00, -0.00, 0.00, -0.01, -0.03, 0.00, 1002.85, 1006.56, 1003.07, 1011.52
3, 1, 57.61, -0.68, 0.23, 9.66, -0.00, -0.00, 0.00, -0.01, -0.03, 0.00, 1002.85, 1006.56, 1003.07, 1011.52
3, 1, 57.61, -0.64, 0.17, 9.72, 0.00, 0.00, 0.00, -0.01, -0.03, 0.00, 1002.85, 1006.56, 1003.08, 1011.51
3, 1, 57.62, -0.70, 0.22, 9.75, -0.00, 0.00, -0.00, -0.01, -0.03, 0.00, 1003.85, 1007.56, 1004.07, 1012.52
3, 1, 57.62, -0.63, 0.23, 9.72, 0.00, -0.00, 0.00, -0.01, -0.03, 0.00, 1003.85, 1007.56, 1004.07, 1012.52
3, 1, 57.62, -0.61, 0.17, 9.70, -0.00, -0.00, -0.00, -0.01, -0.03, 0.00, 1003.85, 1007.56, 1004.07, 1012.51
3, 1, 57.63, -0.66, 0.21, 9.72, -0.00, 0.00, 0.00, -0.01, -0.03, 0.00, 1003.85, 1007.56, 1004.07, 1012.52
3, 1, 57.63, -0.60, 0.24, 9.69, 0.00, 0.00, -0.00, -0.01, -0.03, 0.00, 1003.85, 1007.56, 1004.07, 1012.52
3, 1, 57.64, -0.63, 0.19, 9.71, 0.00, -0.00, -0.00, -0.01, -0.03, 0.00, 1003.85, 1007.56, 1004.07, 1012.52
3, 1, 57.64, -0.68, 0.17, 9.74, -0.00, -0.00, 0.00, -0.01, -0.03, 0.00, 1003.85, 1007.56, 1004.07, 1012.52
3, 1, 57.64, -0.64, 0.22, 9.71, 0.00, 0.00, -0.00, -0.01, -0.03, 0.00, 1003.85, 1007.56, 1004.07, 1012.52
3, 1, 57.65, -0.68, 0.22, 9.72, -0.00, -0.00, 0.00, -0.01, -0.03, 0.00, 1003.85, 1007.56, 1004.07, 1012.52
3, 1, 57.65, -0.65, 0.26, 9.71, 0.00, -0.00, -0.00, -0.01, -0.03, 0.00, 1003.85, 1007.56, 1004.07, 1012.52
3, 1, 57.66, -0.62, 0.22, 9.64, -0.00, 0.00, -0.00, -0.01, -0.03, 0.00, 1004.85, 1008.56, 1005.07, 1013.52
3, 1, 57.66, -0.62, 0.22, 9.71, -0.00, -0.00, 0.00, -0.01, -0.03, 0.00, 1004.85, 1008.56, 1005.07, 1013.52
3, 1, 57.66, -0.69, 0.20, 9.73, -0.00, -0.00, 0.00, -0.01, -0.03, 0.00, 1004.85, 1008.56, 1005.06, 1013.52
3, 1, 57.67, -0.69, 0.20, 9.72, -0.00, -0.00, -0.00, -0.01, -0.03, 0.00, 1004.86, 1008.56, 1005.06, 1013.52
3, 1, 57.67, -0.66, 0.21, 9.69, -0.00, 0.00, -0.00, -0.01, -0.03, 0.00, 1004.86, 1008.56, 1005.06, 1013.52
3, 1, 57.68, -0.71, 0.22, 9.64, -0.00, -0.00, 0.00, -0.01, -0.03, 0.00, 1010.86, 1014.56, 1011.06, 1019.52
3, 1, 57.68, -0.69, 0.19, 9.65, 0.00, 0.00, -0.00, -0.01, -0.03, 0.00, 1010.86, 1014.56, 1011.06, 1019.52
3, 1, 57.68, -0.57, 0.21, 9.71, -0.00, -0.00, -0.00, -0.01, -0.03, 0.00, 1010.86, 1014.55, 1011.06, 1019.52
3, 1, 57.69, -0.68, 0.23, 9.77, 0.00, 0.00, -0.00, -0.01, -0.03, 0.00, 1010.86, 1014.56, 1011.06, 1019.52
3, 1, 57.69, -0.67, 0.19, 9.66, -0.00, -0.00, -0.00, -0.01, -0.03, 0.00, 1010.86, 1014.56, 1011.06, 1019.52
3, 1, 57.70, -0.59, 0.21, 9.67, -0.00, 0.00, -0.00, -0.01, -0.03, 0.00, 1057.87, 1061.55, 1058.06, 1066.52
3, 1, 57.70, -0.63, 0.21, 9.69, -0.00, -0.00, 0.00, -0.01, -0.03, 0.00, 1057.86, 1061.56, 1058.06, 1066.52
3, 1, 57.70, -0.63, 0.17, 9.63, -0.00, 0.00, 0.00, -0.01, -0.03, 0.00, 1057.86, 1061.56, 1058.06, 1066.52
3, 1, 57.71, -0.63, 0.23, 9.64, 0.00, -0.00, -0.00, -0.01, -0.03, 0.00, 1057.86, 1061.56, 1058.06, 1066.52
3, 1, 57.71, -0.67, 0.22, 9.67, -0.00, -0.00, -0.00, -0.01, -0.03, 0.00, 1057.86, 1061.56, 1058.05, 1066.53
3, 1, 57.72, -0.67, 0.22, 9.72, 0.00, 0.00, 0.00, -0.01, -0.03, 0.00, 1064.86, 1068.56, 1065.06, 1073.52
3, 1, 57.72, -0.62, 0.14, 9.69, -0.00, -0.00, 0.00, -0.01, -0.03, 0.00, 1064.86, 1068.56, 1065.06, 1073.52
3, 1, 57.72, -0.64, 0.19, 9.73, -0.00, 0.00, 0.00, -0.01, -0.03, 0.00, 1064.86, 1068.56, 1065.06, 1073.52
3, 1, 57.73, -0.64, 0.19, 9.74, -0.00, -0.00, 0.00, -0.01, -0.03, 0.00, 1064.86, 1068.56, 1065.06, 1073.52
3, 1, 57.73, -0.66, 0.23, 9.67, 0.00, -0.00, 0.00, -0.01, -0.03, 0.00, 1064.86, 1068.56, 1065.06, 1073.52
3, 1, 57.74, -0.67, 0.21, 9.66, 0.00, -0.00, -0.00, -0.01, -0.03, 0.00, 1072.86, 1076.56, 1073.06, 1081.52
3, 1, 57.74, -0.65, 0.24, 9.70, -0.00, 0.00, -0.00, -0.01, -0.03, 0.00, 1072.86, 1076.56, 1073.06, 1081.52
3, 1, 57.74, -0.66, 0.18, 9.74, 0.00, -0.00, 0.00, -0.01, -0.03, 0.00, 1072.86, 1076.56, 1073.06, 1081.52
3, 1, 57.75, -0.71, 0.27, 9.67, -0.00, 0.00, -0.00, -0.01, -0.03, 0.00, 1072.86, 1076.56, 1073.06, 1081.53
3, 1, 57.75, -0.67, 0.07, 9.64, 0.00, 0.00, 0.00, -0.01, -0.03, 0.00, 1072.86, 1076.57, 1073.05, 1081.52
3, 1, 57.76, -0.43, 0.13, 9.34, -0.00, 0.02, -0.00, -0.01, -0.03, 0.00, 1073.86, 1077.56, 1074.05, 1082.52
3, 1, 57.76, -0.67, 0.13, 9.68, 0.00, -0.03, 0.00, -0.01, -0.03, 0.00, 1073.87, 1077.56, 1074.06, 1082.52
3, 1, 57.76, -0.97, -0.06, 9.97, -0.00, -0.00, -0.00, -0.01, -0.03, 0.00, 1073.87, 1077.57, 1074.04, 1082.52
3, 1, 57.77, -0.62, 0.14, 9.84, 0.00, 0.01, -0.00, -0.01, -0.03, 0.00, 1073.87, 1077.55, 1074.05, 1082.53
3, 1, 57.77, -0.47, 0.04, 9.69, -0.00, 0.00, 0.00, -0.01, -0.03, 0.00, 1073.88, 1077.56, 1074.05, 1082.52
3, 1, 57.78, -0.96, 0.19, 9.85, -0.00, 0.00, 0.00, -0.01, -0.03, 0.00, 1073.85, 1077.57, 1074.03, 1082.54
3, 1, 57.78, 0.06, 0.26, 9.19, -0.00, 0.05, 0.01, -0.01, -0.03, 0.00, 1073.86, 1077.56, 1074.07, 1082.51
3, 1, 57.78, -0.85, 0.34, 9.64, 0.00, -0.07, 0.01, -0.01, -0.03, 0.00, 1073.84, 1077.58, 1074.07, 1082.52
3, 1, 57.79, -1.37, 0.27, 10.29, -0.00, -0.03, 0.00, -0.01, -0.03, 0.00, 1073.83, 1077.59, 1074.06, 1082.51
3, 1, 57.79, -1.13, 0.13, 9.99, 0.00, -0.11, 0.00, -0.01, -0.03, 0.00, 1073.91, 1077.52, 1074.15, 1082.42
3, 1, 57.80, -1.43, 0.34, 10.46, -0.00, -0.06, -0.00, -0.01, -0.03, 0.00, 1073.93, 1077.49, 1074.16, 1082.42
3, 1, 57.80, 0.06, 0.38, 9.21, -0.00, 0.12, -0.00, -0.01, -0.03, 0.00, 1073.93, 1077.48, 1074.16, 1082.42
3, 1, 57.81, -0.40, 0.19, 9.50, 0.00, -0.02, -0.00, -0.01, -0.03, 0.00, 1073.94, 1077.49, 1074.14, 1082.43
3, 1, 57.81, -1.00, 0.34, 10.17, 0.00, -0.06, 0.00, -0.01, -0.03, 0.00, 1073.94, 1077.48, 1074.15, 1082.43
3, 1, 57.81, -0.49, 0.22, 9.52, -0.00, 0.04, 0.00, -0.01, -0.03, 0.00, 1073.94, 1077.49, 1074.15, 1082.43
3, 1, 57.82, -0.54, 0.21, 9.32, 0.00, 0.00, 0.00, -0.01, -0.03, 0.00, 1073.93, 1077.50, 1074.14, 1082.43
3, 1, 57.82, -0.73, 0.55, 9.69, -0.00, -0.03, 0.01, -0.01, -0.03, 0.00, 1073.92, 1077.49, 1074.17, 1082.43
3, 1, 57.83, -0.84, 0.28, 9.55, 0.00, 0.04, 0.00, -0.01, -0.03, 0.00, 1073.90, 1077.52, 1074.15, 1082.43
3, 1, 57.83, -0.23, 0.19, 9.06, 0.00, 0.00, 0.00, -0.01, -0.03, 0.00, 1073.92, 1077.50, 1074.17, 1082.40
3, 1, 57.83, -0.62, 0.41, 9.60, -0.00, -0.06, -0.00, -0.01, -0.03, 0.00, 1073.93, 1077.48, 1074.18, 1082.41
3, 1, 57.84, -0.99, 0.07, 9.94, 0.00, 0.01, -0.00, -0.01, -0.03, 0.00, 1073.93, 1077.51, 1074.14, 1082.42
3, 1, 57.84, -0.49, 0.03, 9.52, 0.00, 0.02, -0.01, -0.01, -0.03, 0.00, 1073.95, 1077.49, 1074.15, 1082.42
3, 1, 57.85, -0.42, 0.24, 9.79, 0.00, -0.05, -0.01, -0.01, -0.03, 0.00, 1073.97, 1077.45, 1074.17, 1082.41
3, 1, 57.85, -1.25, 0.07, 10.15, -0.00, 0.02, -0.01, -0.01, -0.03, 0.00, 1073.95, 1077.48, 1074.12, 1082.45
3, 1, 57.85, -0.21, 0.12, 9.40, 0.00, 0.02, -0.00, -0.01, -0.03, 0.00, 1074.98, 1078.45, 1075.15, 1083.43
3, 1, 57.86, -0.23, 0.30, 9.61, -0.00, -0.05, 0.01, -0.01, -0.03, 0.00, 1074.98, 1078.43, 1075.18, 1083.41
3, 1, 57.86, -1.32, 0.18, 10.11, -0.00, -0.04, 0.00, -0.01, -0.03, 0.00, 1074.95, 1078.47, 1075.15, 1083.42
3, 1, 57.87, -0.69, 0.11, 9.86, -0.00, 0.07, 0.00, -0.01, -0.03, 0.00, 1074.95, 1078.48, 1075.16, 1083.41
3, 1, 57.87, 0.01, 0.45, 9.02, -0.00, 0.02, 0.00, -0.01, -0.03, 0.00, 1074.95, 1078.46, 1075.19, 1083.40
3, 1, 57.88, -0.81, -0.21, 9.64, 0.00, -0.06, 0.00, -0.01, -0.03, 0.00, 1074.96, 1078.49, 1075.16, 1083.38
3, 1, 57.88, -1.25, 0.13, 10.09, 0.00, -0.02, -0.00, -0.01, -0.03, 0.00, 1074.94, 1078.49, 1075.16, 1083.41
3, 1, 57.88, -0.46, 0.23, 9.90, -0.00, 0.05, -0.00, -0.01, -0.03, 0.00, 1074.96, 1078.47, 1075.16, 1083.41
3, 1, 57.89, -0.43, 0.14, 9.60, 0.00, -0.00, -0.00, -0.01, -0.03, 0.00, 1074.96, 1078.47, 1075.17, 1083.41
3, 1, 57.89, -0.89, 0.04, 9.77, 0.00, -0.08, -0.00, -0.01, -0.03, 0.00, 1074.98, 1078.46, 1075.18, 1083.39
3, 1, 57.90, -0.86, 0.06, 10.15, -0.00, 0.04, 0.00, -0.01, -0.03, 0.00, 1072.97, 1076.47, 1073.16, 1081.40
3, 1, 57.90, -0.62, 0.58, 9.64, 0.00, 0.06, -0.00, -0.01, -0.03, 0.00, 1072.94, 1076.46, 1073.17, 1081.44
3, 1, 57.90, -0.09, 0.29, 9.18, 0.00, -0.05, 0.00, -0.01, -0.03, 0.00, 1072.98, 1076.44, 1073.20, 1081.39
3, 1, 57.91, -1.04, 0.18, 9.78, 0.00, -0.04, -0.00, -0.01, -0.03, 0.00, 1072.97, 1076.45, 1073.17, 1081.41
3, 1, 57.91, -1.18, 0.29, 9.99, -0.00, 0.00, -0.00, -0.01, -0.03, 0.00, 1072.96, 1076.45, 1073.17, 1081.42
3, 1, 57.92, -0.23, 0.34, 9.64, -0.00, 0.03, -0.00, -0.01, -0.03, 0.00, 1072.98, 1076.43, 1073.19, 1081.40
3, 1, 57.92, -0.82, 0.44, 9.74, 0.00, -0.04, -0.00, -0.01, -0.03, 0.00, 1072.98, 1076.43, 1073.18, 1081.42
3, 1, 57.92, -0.74, 0.04, 9.68, 0.00, 0.04, -0.00, -0.01, -0.03, 0.00, 1072.98, 1076.45, 1073.16, 1081.41
3, 1, 57.93, -0.18, 0.31, 9.35, 0.00, -0.00, -0.00, -0.01, -0.03, 0.00, 1072.99, 1076.42, 1073.19, 1081.40
3, 1, 57.93, -1.05, -0.00, 9.97, -0.00, -0.07, 0.00, -0.01, -0.03, 0.00, 1073.00, 1076.43, 1073.17, 1081.39
3, 1, 57.94, -1.27, 0.34, 10.20, 0.00, 0.05, -0.00, -0.01, -0.03, 0.00, 1072.96, 1076.44, 1073.16, 1081.44
3, 1, 57.94, 0.21, 0.01, 9.30, -0.00, 0.09, -0.00, -0.01, -0.03, 0.00, 1073.00, 1076.43, 1073.16, 1081.40
3, 1, 57.94, -0.62, 0.19, 9.53, 0.00, -0.08, 0.00, -0.01, -0.03, 0.00, 1072.98, 1076.43, 1073.18, 1081.41
3, 1, 57.95, -0.96, 0.21, 10.08, 0.00, -0.04, -0.00, -0.01, -0.03, 0.00, 1072.99, 1076.42, 1073.18, 1081.41
3, 1, 57.95, -0.90, 0.25, 9.62, -0.00, 0.07, -0.00, -0.01, -0.03, 0.00, 1072.97, 1076.44, 1073.15, 1081.44
3, 1, 57.96, -0.46, -0.41, 9.27, -0.00, -0.03, 0.00, -0.01, -0.03, 0.00, 1074.02, 1077.44, 1074.15, 1082.38
3, 1, 57.96, -0.56, 0.00, 10.07, 0.00, -0.09, 0.00, -0.01, -0.03, 0.00, 1074.03, 1077.40, 1074.20, 1082.37
3, 1, 57.96, -1.51, -0.05, 10.98, -0.00, 0.03, -0.00, -0.01, -0.03, 0.00, 1074.00, 1077.44, 1074.16, 1082.41
3, 1, 57.97, -0.38, -0.01, 9.15, -0.00, 0.09, -0.00, -0.01, -0.03, 0.00, 1074.00, 1077.43, 1074.15, 1082.41
3, 1, 57.97, 0.15, 0.02, 9.46, -0.00, -0.05, -0.00, -0.01, -0.03, 0.00, 1074.05, 1077.39, 1074.18, 1082.38
3, 1, 57.97, -1.26, -0.03, 10.31, 0.00, -0.10, 0.00, -0.01, -0.03, 0.00, 1073.03, 1076.41, 1073.18, 1081.38
3, 1, 57.98, -1.44, -0.03, 10.37, -0.00, 0.09, 0.00, -0.01, -0.03, 0.00, 1072.99, 1076.45, 1073.14, 1081.42
3, 1, 57.98, 0.48, 0.40, 9.27, -0.00, 0.13, -0.00, -0.01, -0.03, 0.00, 1073.00, 1076.41, 1073.17, 1081.42
3, 1, 57.99, 0.05, 0.42, 9.25, 0.00, -0.13, 0.02, -0.01, -0.03, 0.00, 1073.02, 1076.40, 1073.21, 1081.37
3, 1, 57.99, -1.64, -0.06, 10.85, 0.00, -0.00, 0.00, -0.01, -0.03, 0.00, 1072.98, 1076.47, 1073.15, 1081.40
3, 1, 57.99, -0.26, 0.66, 9.00, -0.00, 0.13, -0.00, -0.01, -0.03, 0.00, 1072.95, 1076.45, 1073.17, 1081.43
3, 1, 58.00, 0.18, 0.11, 8.91, -0.00, -0.06, 0.01, -0.01, -0.03, 0.00, 1073.00, 1076.44, 1073.19, 1081.36
3, 1, 58.00, -2.08, -0.02, 10.43, 0.01, -0.09, 0.00, -0.01, -0.03, 0.00, 1072.95, 1076.50, 1073.15, 1081.40
3, 1, 58.01, 0.07, 0.18, 9.45, -0.00, 0.17, -0.01, -0.01, -0.03, 0.00, 1072.97, 1076.47, 1073.16, 1081.40
3, 1, 58.01, -0.03, 0.09, 8.68, 0.00, -0.03, -0.00, -0.01, -0.03, 0.00, 1072.98, 1076.46, 1073.16, 1081.40
3, 1, 58.01, -1.26, 0.36, 10.07, 0.02, -0.22, 0.01, -0.01, -0.03, 0.00, 1073.00, 1076.41, 1073.21, 1081.37
3, 1, 58.02, -1.24, 0.37, 10.61, -0.00, 0.20, -0.00, -0.01, -0.03, 0.00, 1072.94, 1076.48, 1073.14, 1081.44
3, 1, 58.02, -0.23, 0.22, 8.92, -0.00, 0.06, 0.00, -0.01, -0.03, 0.00, 1072.95, 1076.48, 1073.15, 1081.42
3, 1, 58.03, 0.44, 0.34, 8.84, 0.00, -0.04, 0.00, -0.01, -0.03, 0.00, 1072.98, 1076.44, 1073.20, 1081.38
3, 1, 58.03, -1.16, 0.37, 9.80, 0.00, -0.03, -0.00, -0.01, -0.03, 0.00, 1072.94, 1076.48, 1073.14, 1081.44
3, 1, 58.03, -0.59, 0.07, 9.83, -0.01, -0.08, 0.00, -0.01, -0.03, 0.00, 1072.99, 1076.45, 1073.18, 1081.37
3, 1, 58.04, -1.25, 0.42, 10.52, -0.00, 0.07, 0.02, -0.01, -0.03, 0.00, 1072.93, 1076.50, 1073.16, 1081.41
3, 1, 58.04, -0.48, 0.43, 9.65, -0.00, 0.13, 0.00, -0.01, -0.03, 0.00, 1072.90, 1076.52, 1073.14, 1081.43
3, 1, 58.05, 0.74, 0.57, 8.59, -0.00, 0.04, 0.00, -0.01, -0.03, 0.00, 1072.91, 1076.49, 1073.20, 1081.40
3, 1, 58.05, -1.89, 0.98, 10.20, 0.00, -0.12, 0.01, -0.01, -0.03, 0.00, 1072.86, 1076.53, 1073.15, 1081.47
3, 1, 58.06, -0.59, -0.04, 9.25, 0.00, 0.06, -0.00, -0.01, -0.03, 0.00, 1073.90, 1077.56, 1074.14, 1082.40
3, 1, 58.06, 0.32, -0.05, 9.06, -0.00, 0.07, -0.00, -0.01, -0.03, 0.00, 1073.92, 1077.54, 1074.14, 1082.40
3, 1, 58.06, -1.39, 0.41, 10.50, -0.00, -0.15, 0.00, -0.01, -0.03, 0.00, 1073.90, 1077.53, 1074.15, 1082.42
3, 1, 58.07, -0.89, 0.29, 9.68, -0.00, 0.05, 0.00, -0.01, -0.03, 0.00, 1073.89, 1077.55, 1074.15, 1082.41
3, 1, 58.07, -0.28, 0.00, 9.03, 0.00, 0.05, 0.00, -0.01, -0.03, 0.00, 1073.89, 1077.56, 1074.15, 1082.39
3, 1, 58.08, -0.35, 0.69, 9.42, -0.01, -0.00, 0.00, -0.01, -0.03, 0.00, 1071.87, 1075.54, 1072.18, 1080.41
3, 1, 58.08, -1.31, 0.34, 9.51, 0.00, 0.01, -0.00, -0.01, -0.03, 0.00, 1071.84, 1075.59, 1072.12, 1080.44
3, 1, 58.08, 0.44, 0.55, 8.68, -0.00, 0.09, -0.00, -0.01, -0.03, 0.00, 1071.86, 1075.55, 1072.17, 1080.41
3, 1, 58.09, -0.78, 0.22, 10.13, 0.00, -0.03, 0.00, -0.01, -0.03, 0.00, 1071.84, 1075.60, 1072.12, 1080.43
3, 1, 58.09, -1.65, 0.62, 10.22, -0.00, -0.10, 0.00, -0.01, -0.03, 0.00, 1071.84, 1075.58, 1072.14, 1080.44
3, 1, 58.10, 0.30, -0.53, 9.35, 0.01, 0.12, -0.00, -0.01, -0.03, 0.00, 1071.90, 1075.60, 1072.13, 1080.37
3, 1, 58.10, -0.87, 0.79, 9.58, -0.01, -0.00, 0.00, -0.01, -0.03, 0.00, 1071.82, 1075.59, 1072.13, 1080.46
3, 1, 58.10, -0.25, 0.07, 9.31, 0.00, 0.03, 0.00, -0.01, -0.03, 0.00, 1071.84, 1075.62, 1072.13, 1080.41
3, 1, 58.11, -1.08, 0.22, 9.68, 0.00, -0.00, 0.00, -0.01, -0.03, 0.00, 1071.81, 1075.64, 1072.11, 1080.44
3, 1, 58.11, -0.54, 0.58, 9.54, -0.00, -0.02, -0.00, -0.01, -0.03, 0.00, 1071.82, 1075.60, 1072.15, 1080.43
3, 1, 58.12, -0.55, -0.26, 9.24, 0.00, 0.07, -0.01, -0.01, -0.03, 0.00, 1073.83, 1077.65, 1074.09, 1082.43
3, 1, 58.12, -0.21, 0.39, 9.89, -0.02, -0.03, -0.00, -0.01, -0.03, 0.00, 1073.84, 1077.60, 1074.13, 1082.43
3, 1, 58.12, -1.45, -0.37, 10.20, 0.02, -0.06, 0.00, -0.01, -0.03, 0.00, 1073.83, 1077.65, 1074.10, 1082.42
3, 1, 58.13, 0.09, 0.62, 9.54, -0.03, 0.07, -0.01, -0.01, -0.03, 0.00, 1073.85, 1077.58, 1074.14, 1082.43
3, 1, 58.13, -0.75, -0.17, 9.62, 0.02, 0.02, 0.00, -0.01, -0.03, 0.00, 1073.82, 1077.65, 1074.08, 1082.44
3, 1, 58.13, -0.54, 0.85, 8.94, -0.00, 0.02, 0.00, -0.01, -0.03, 0.00, 1072.79, 1076.61, 1073.12, 1081.48
3, 1, 58.14, 0.44, 0.12, 9.19, 0.00, 0.12, -0.00, -0.01, -0.03, 0.00, 1072.81, 1076.65, 1073.09, 1081.46
3, 1, 58.14, -1.76, 0.39, 9.72, -0.02, -0.12, 0.00, -0.01, -0.03, 0.00, 1072.77, 1076.68, 1073.05, 1081.50
3, 1, 58.15, -0.03, -0.34, 9.91, 0.00, 0.05, -0.00, -0.01, -0.03, 0.00, 1072.83, 1076.67, 1073.08, 1081.43
3, 1, 58.15, -0.39, 0.90, 8.92, -0.00, 0.10, 0.00, -0.01, -0.03, 0.00, 1072.74, 1076.67, 1073.07, 1081.52
3, 1, 58.15, -0.59, -0.12, 10.09, 0.00, -0.10, 0.00, -0.01, -0.03, 0.00, 1073.80, 1077.68, 1074.07, 1082.45
3, 1, 58.16, -1.51, 0.44, 10.11, -0.00, -0.00, 0.00, -0.01, -0.03, 0.00, 1073.76, 1077.69, 1074.05, 1082.50
3, 1, 58.16, 0.00, -0.21, 9.08, -0.00, 0.10, -0.00, -0.01, -0.03, 0.00, 1073.80, 1077.70, 1074.05, 1082.45
3, 1, 58.17, -0.15, 0.65, 9.28, 0.00, 0.02, -0.00, -0.01, -0.03, 0.00, 1073.75, 1077.68, 1074.07, 1082.50
3, 1, 58.17, -1.62, 0.03, 10.07, -0.00, -0.10, 0.00, -0.01, -0.03, 0.00, 1073.76, 1077.73, 1074.03, 1082.49
3, 1, 58.17, -0.23, 0.01, 9.37, 0.01, 0.09, -0.00, -0.01, -0.03, 0.00, 1072.77, 1076.70, 1073.05, 1081.48
3, 1, 58.18, -0.32, 0.79, 9.17, -0.00, 0.00, -0.00, -0.01, -0.03, 0.00, 1072.74, 1076.68, 1073.06, 1081.52
3, 1, 58.18, -1.13, -0.26, 10.26, 0.01, -0.08, 0.00, -0.01, -0.03, 0.00, 1072.77, 1076.72, 1073.04, 1081.47
3, 1, 58.19, -1.03, 1.02, 10.15, -0.01, 0.00, 0.00, -0.01, -0.03, 0.00, 1072.74, 1076.67, 1073.07, 1081.52
3, 1, 58.19, 0.66, -0.16, 8.74, 0.00, 0.12, -0.00, -0.01, -0.03, 0.00, 1072.80, 1076.69, 1073.05, 1081.46
3, 1, 58.19, -1.44, 0.80, 10.28, -0.00, -0.11, 0.01, -0.01, -0.03, 0.00, 1072.73, 1076.69, 1073.05, 1081.53
3, 1, 58.20, -1.19, -0.17, 9.75, 0.00, 0.00, -0.01, -0.01, -0.03, 0.00, 1072.76, 1076.72, 1073.02, 1081.49
3, 1, 58.20, 0.37, 0.66, 8.94, -0.00, 0.09, -0.00, -0.01, -0.03, 0.00, 1072.76, 1076.66, 1073.08, 1081.50
3, 1, 58.21, -1.35, 0.18, 10.18, 0.00, -0.06, -0.00, -0.01, -0.03, 0.00, 1072.74, 1076.72, 1073.02, 1081.52
3, 1, 58.21, 0.04, 0.67, 9.17, -0.02, -0.00, -0.00, -0.01, -0.03, 0.00, 1072.78, 1076.65, 1073.07, 1081.50
3, 1, 58.22, -1.87, 0.09, 11.06, 0.02, -0.11, 0.02, -0.01, -0.03, 0.00, 1073.76, 1077.70, 1074.05, 1082.49
3, 1, 58.22, 0.24, 0.72, 8.24, -0.03, 0.16, -0.01, -0.01, -0.03, 0.00, 1073.76, 1077.66, 1074.07, 1082.51
3, 1, 58.22, -0.20, 0.07, 10.20, 0.01, -0.04, 0.00, -0.01, -0.03, 0.00, 1073.78, 1077.69, 1074.05, 1082.48
3, 1, 58.23, -2.06, 0.73, 10.12, -0.00, -0.10, 0.02, -0.01, -0.03, 0.00, 1073.73, 1077.70, 1074.04, 1082.53
3, 1, 58.23, 0.58, -0.02, 8.11, 0.01, 0.22, -0.00, -0.01, -0.03, 0.00, 1073.76, 1077.72, 1074.05, 1082.48
3, 1, 58.24, -0.46, 0.91, 9.38, -0.00, -0.08, 0.02, -0.01, -0.03, 0.00, 1072.70, 1076.71, 1073.07, 1081.52
3, 1, 58.24, -2.91, -0.59, 11.40, 0.01, -0.23, 0.00, -0.01, -0.03, 0.00, 1072.74, 1076.76, 1073.06, 1081.44
3, 1, 58.24, 0.29, 0.33, 8.81, -0.01, 0.22, -0.01, -0.01, -0.03, 0.00, 1072.75, 1076.70, 1073.09, 1081.46
3, 1, 58.25, 0.13, 0.58, 9.38, -0.00, -0.02, 0.00, -0.01, -0.03, 0.00, 1072.74, 1076.69, 1073.10, 1081.47
3, 1, 58.25, -1.66, -0.26, 10.39, 0.00, -0.08, 0.00, -0.01, -0.03, 0.00, 1072.73, 1076.76, 1073.04, 1081.47
3, 1, 58.26, -0.25, 1.09, 9.89, 0.00, 0.00, 0.00, -0.01, -0.03, 0.00, 1072.72, 1076.67, 1073.14, 1081.47
3, 1, 58.26, -0.41, 0.34, 9.21, -0.00, 0.06, 0.00, -0.01, -0.03, 0.00, 1072.72, 1076.73, 1073.09, 1081.46
3, 1, 58.26, -0.85, 0.02, 9.08, 0.00, -0.02, -0.00, -0.01, -0.03, 0.00, 1072.72, 1076.75, 1073.06, 1081.46
3, 1, 58.27, -0.77, -0.39, 9.90, 0.01, -0.01, 0.01, -0.01, -0.03, 0.00, 1072.73, 1076.76, 1073.07, 1081.43
3, 1, 58.27, -0.51, 1.11, 9.14, -0.01, 0.08, -0.00, -0.01, -0.03, 0.00, 1072.67, 1076.72, 1073.09, 1081.52
3, 1, 58.28, -0.63, -0.47, 10.29, 0.00, -0.13, -0.00, -0.01, -0.03, 0.00, 1072.76, 1076.74, 1073.08, 1081.41
3, 1, 58.28, -1.30, 0.10, 10.99, -0.00, -0.05, 0.00, -0.01, -0.03, 0.00, 1072.75, 1076.72, 1073.10, 1081.43
3, 1, 58.28, -0.23, 0.25, 8.88, 0.00, 0.14, -0.02, -0.01, -0.03, 0.00, 1072.73, 1076.72, 1073.08, 1081.47
3, 1, 58.29, 1.07, -0.21, 8.79, -0.02, 0.07, -0.00, -0.01, -0.03, 0.00, 1072.80, 1076.70, 1073.07, 1081.43
3, 1, 58.29, -3.11, 0.11, 11.67, 0.02, -0.28, 0.01, -0.01, -0.03, 0.00, 1072.73, 1076.73, 1073.07, 1081.47
3, 1, 58.29, 0.34, 0.25, 8.63, -0.02, 0.28, -0.02, -0.01, -0.03, 0.00, 1072.76, 1076.71, 1073.05, 1081.48
3, 1, 58.30, 1.18, -0.19, 8.60, 0.01, -0.01, 0.00, -0.01, -0.03, 0.00, 1072.81, 1076.68, 1073.08, 1081.42
3, 1, 58.30, -4.27, 0.34, 12.58, 0.01, -0.38, 0.03, -0.01, -0.03, 0.00, 1072.74, 1076.71, 1073.09, 1081.45
3, 1, 58.31, 0.02, -0.45, 9.62, 0.03, -0.47, 0.03, -0.01, -0.03, 0.00, 1073.13, 1076.34, 1073.56, 1080.97
3, 1, 58.31, -3.89, 0.56, 12.67, -0.02, 0.06, 0.00, -0.01, -0.03, 0.00, 1072.99, 1076.44, 1073.45, 1081.13
3, 1, 58.32, -0.17, 0.56, 9.92, -0.02, 0.39, -0.03, -0.01, -0.03, 0.00, 1074.93, 1078.51, 1075.34, 1083.23
3, 1, 58.32, 2.17, -0.33, 7.00, 0.00, 0.07, -0.00, -0.01, -0.03, 0.00, 1075.07, 1078.44, 1075.38, 1083.12
3, 1, 58.33, -2.91, -0.31, 11.78, 0.00, -0.38, 0.00, -0.01, -0.03, 0.00, 1074.98, 1078.51, 1075.35, 1083.16
3, 1, 58.33, -1.08, 0.09, 9.83, -0.00, 0.26, -0.01, -0.01, -0.03, 0.00, 1074.94, 1078.53, 1075.30, 1083.23
3, 1, 58.34, 1.59, 0.34, 7.30, -0.00, 0.12, -0.00, -0.01, -0.03, 0.00, 1073.99, 1077.45, 1074.39, 1082.17
3, 1, 58.34, -2.42, -0.08, 11.48, 0.01, -0.37, 0.02, -0.01, -0.03, 0.00, 1073.98, 1077.49, 1074.37, 1082.16
3, 1, 58.34, -1.38, 0.39, 10.67, -0.01, 0.19, -0.00, -0.01, -0.03, 0.00, 1073.94, 1077.51, 1074.33, 1082.22
3, 1, 58.35, 1.90, 0.23, 7.89, 0.00, 0.21, -0.00, -0.01, -0.03, 0.00, 1073.99, 1077.47, 1074.39, 1082.16
3, 1, 58.35, -1.41, -0.17, 10.11, 0.00, -0.27, 0.01, -0.01, -0.03, 0.00, 1073.96, 1077.52, 1074.35, 1082.17
3, 1, 58.36, -1.76, 0.84, 10.93, -0.00, 0.09, 0.00, -0.01, -0.03, 0.00, 1073.89, 1077.52, 1074.33, 1082.25
3, 1, 58.36, 1.06, 0.89, 8.00, -0.00, 0.19, 0.00, -0.01, -0.03, 0.00, 1073.89, 1077.50, 1074.40, 1082.21
3, 1, 58.36, -0.45, 0.29, 9.82, -0.00, -0.14, 0.00, -0.01, -0.03, 0.00, 1073.92, 1077.54, 1074.35, 1082.20
3, 1, 58.37, -2.24, 0.33, 10.66, 0.00, -0.06, 0.00, -0.01, -0.03, 0.00, 1073.88, 1077.57, 1074.32, 1082.23
3, 1, 58.37, 0.79, 0.19, 8.16, -0.02, 0.18, -0.00, -0.01, -0.03, 0.00, 1073.93, 1077.54, 1074.36, 1082.18
3, 1, 58.38, -0.81, 0.71, 10.59, 0.01, -0.17, 0.02, -0.01, -0.03, 0.00, 1073.90, 1077.53, 1074.38, 1082.19
3, 1, 58.38, -1.89, 0.31, 9.97, -0.01, 0.04, 0.00, -0.01, -0.03, 0.00, 1073.86, 1077.60, 1074.32, 1082.23
3, 1, 58.38, 1.41, 0.11, 7.88, 0.00, 0.26, -0.02, -0.01, -0.03, 0.00, 1073.91, 1077.56, 1074.34, 1082.19
3, 1, 58.39, -0.99, 0.21, 9.84, 0.00, -0.25, 0.01, -0.01, -0.03, 0.00, 1073.89, 1077.57, 1074.34, 1082.20
3, 1, 58.39, -2.64, 0.12, 11.22, 0.00, -0.03, -0.01, -0.01, -0.03, 0.00, 1073.87, 1077.60, 1074.29, 1082.24
3, 1, 58.40, 0.76, -0.07, 8.44, -0.01, 0.28, -0.03, -0.01, -0.03, 0.00, 1072.92, 1076.57, 1073.27, 1081.24
3, 1, 58.40, -0.09, -0.06, 9.62, 0.00, -0.18, 0.00, -0.01, -0.03, 0.00, 1072.94, 1076.54, 1073.30, 1081.21
