test_number,stageinflight,time(s),ax(ms2),ay(ms2),az(ms2),gx(deg/s),gy(deg/s),gz(deg/s),pitch_error(deg),roll_error(deg),yaw_error(deg),pitch_output,roll_output,yaw_output,m0_output(pwm),m1_output(pwm),m2_output(pwm),m3_output(pwm)
1, 1, 11.12, -0.62, 0.24, 9.62, -0.07, -0.02, 0.06, -1.29, -3.23, 0.14, -2.70, -6.760.48, 1000.01, 1012.59, 1004.46, 1018.94
1, 1, 11.12, -0.67, 0.23, 9.74, -0.11, -0.00, 0.01, -1.29, -3.23, 0.14, -2.70, -6.770.48, 1000.01, 1012.59, 1004.46, 1018.94
1, 1, 11.12, -0.64, 0.26, 9.67, 0.02, 0.00, -0.03, -1.29, -3.23, 0.14, -2.70, -6.770.48, 1000.01, 1012.59, 1004.46, 1018.94
1, 1, 11.13, -0.66, 0.25, 9.71, -0.02, -0.13, -0.06, -1.29, -3.23, 0.14, -2.70, -6.770.48, 1000.01, 1012.59, 1004.46, 1018.94
1, 1, 11.13, -0.68, 0.25, 9.70, 0.04, 0.05, 0.03, -1.29, -3.23, 0.14, -2.70, -6.770.48, 1000.01, 1012.59, 1004.46, 1018.94
1, 1, 11.14, -0.65, 0.31, 9.74, -0.07, -0.05, -0.02, -1.29, -3.23, 0.14, -2.70, -6.760.48, 1000.01, 1012.59, 1004.46, 1018.94
1, 1, 11.14, -0.67, 0.30, 9.71, 0.07, -0.15, -0.03, -1.29, -3.23, 0.14, -2.70, -6.760.48, 1000.01, 1012.59, 1004.46, 1018.94
1, 1, 11.15, -0.66, 0.21, 9.69, 0.12, -0.18, -0.06, -1.29, -3.23, 0.14, -2.70, -6.760.48, 1000.02, 1012.59, 1004.46, 1018.94
1, 1, 11.15, -0.62, 0.19, 9.77, 0.02, -0.05, -0.16, -1.29, -3.23, 0.14, -2.70, -6.760.48, 1000.02, 1012.58, 1004.46, 1018.94
1, 1, 11.16, -0.67, 0.18, 9.62, -0.02, -0.02, 0.03, -1.29, -3.23, 0.14, -2.70, -6.760.48, 1000.02, 1012.59, 1004.45, 1018.94
1, 1, 11.16, -0.65, 0.27, 9.71, -0.05, -0.04, -0.02, -1.29, -3.23, 0.14, -2.70, -6.760.48, 1000.02, 1012.58, 1004.46, 1018.94
1, 1, 11.16, -0.65, 0.23, 9.66, -0.07, -0.04, -0.11, -1.29, -3.23, 0.14, -2.70, -6.760.48, 1000.02, 1012.58, 1004.46, 1018.94
1, 1, 11.17, -0.59, 0.24, 9.70, 0.07, 0.05, 0.04, -1.29, -3.23, 0.14, -2.70, -6.760.48, 1000.03, 1012.58, 1004.46, 1018.94
1, 1, 11.17, -0.68, 0.21, 9.65, -0.02, -0.10, -0.00, -1.29, -3.23, 0.14, -2.70, -6.760.48, 1000.02, 1012.58, 1004.45, 1018.94
1, 1, 11.18, -0.63, 0.23, 9.68, 0.18, 0.10, 0.12, -1.29, -3.23, 0.14, -2.70, -6.760.48, 1000.02, 1012.58, 1004.46, 1018.94
1, 1, 11.18, -0.68, 0.24, 9.69, -0.07, 0.00, 0.04, -1.29, -3.23, 0.14, -2.70, -6.760.48, 1000.02, 1012.58, 1004.46, 1018.94
1, 1, 11.19, -0.63, 0.16, 9.72, 0.05, -0.00, -0.05, -1.29, -3.23, 0.14, -2.70, -6.760.48, 1000.02, 1012.58, 1004.46, 1018.93
1, 1, 11.19, -0.68, 0.24, 9.77, 0.00, -0.16, -0.10, -1.29, -3.23, 0.14, -2.70, -6.760.48, 1000.02, 1012.58, 1004.46, 1018.94
1, 1, 11.20, -0.65, 0.21, 9.71, 0.09, -0.05, -0.05, -1.29, -3.23, 0.14, -2.70, -6.760.48, 1000.02, 1012.58, 1004.46, 1018.94
1, 1, 11.20, -0.66, 0.19, 9.64, -0.00, 0.21, 0.06, -1.29, -3.23, 0.14, -2.70, -6.760.48, 1001.02, 1013.58, 1005.46, 1019.94
1, 1, 11.20, -0.63, 0.26, 9.68, 0.07, 0.07, 0.16, -1.29, -3.23, 0.14, -2.70, -6.760.48, 1001.02, 1013.58, 1005.46, 1019.94
1, 1, 11.21, -0.68, 0.20, 9.66, -0.02, -0.10, -0.00, -1.29, -3.23, 0.14, -2.70, -6.760.48, 1001.02, 1013.58, 1005.46, 1019.94
1, 1, 11.21, -0.64, 0.23, 9.71, -0.07, 0.00, 0.10, -1.29, -3.23, 0.14, -2.70, -6.760.48, 1001.02, 1013.58, 1005.46, 1019.94
1, 1, 11.22, -0.66, 0.27, 9.75, -0.07, 0.02, -0.14, -1.29, -3.23, 0.14, -2.70, -6.760.48, 1000.02, 1012.58, 1004.46, 1018.94
1, 1, 11.22, -0.68, 0.23, 9.69, -0.04, -0.13, 0.10, -1.29, -3.23, 0.14, -2.70, -6.760.48, 1000.02, 1012.58, 1004.46, 1018.94
1, 1, 11.23, -0.62, 0.20, 9.66, -0.00, 0.10, 0.07, -1.29, -3.23, 0.14, -2.70, -6.760.48, 1000.02, 1012.59, 1004.46, 1018.93
1, 1, 11.23, -0.64, 0.20, 9.73, -0.04, -0.10, 0.13, -1.29, -3.23, 0.14, -2.70, -6.760.47, 1000.02, 1012.59, 1004.46, 1018.93
1, 1, 11.23, -0.66, 0.27, 9.63, 0.10, 0.13, 0.10, -1.29, -3.23, 0.14, -2.70, -6.760.47, 1000.01, 1012.59, 1004.47, 1018.94
1, 1, 11.24, -0.61, 0.17, 9.70, 0.12, 0.04, 0.03, -1.29, -3.23, 0.14, -2.70, -6.760.47, 1000.02, 1012.59, 1004.47, 1018.93
1, 1, 11.24, -0.64, 0.21, 9.63, -0.02, -0.07, 0.18, -1.29, -3.23, 0.13, -2.70, -6.760.47, 1000.01, 1012.59, 1004.47, 1018.93
1, 1, 11.25, -0.69, 0.26, 9.73, -0.08, -0.05, 0.06, -1.29, -3.23, 0.13, -2.70, -6.760.47, 1000.01, 1012.59, 1004.47, 1018.93
1, 1, 11.25, -0.68, 0.25, 9.69, -0.11, 0.02, -0.00, -1.29, -3.23, 0.13, -2.70, -6.760.47, 1000.01, 1012.59, 1004.47, 1018.93
1, 1, 11.25, -0.67, 0.19, 9.75, -0.11, -0.05, -0.00, -1.29, -3.23, 0.13, -2.70, -6.760.47, 1000.01, 1012.60, 1004.47, 1018.93
1, 1, 11.26, -0.64, 0.25, 9.75, -0.10, -0.12, -0.06, -1.29, -3.23, 0.13, -2.70, -6.760.47, 1001.01, 1013.59, 1005.47, 1019.93
1, 1, 11.26, -0.66, 0.24, 9.70, -0.08, -0.02, -0.16, -1.29, -3.23, 0.14, -2.70, -6.760.47, 1001.02, 1013.59, 1005.47, 1019.93
1, 1, 11.27, -0.64, 0.30, 9.73, 0.09, -0.05, 0.07, -1.29, -3.23, 0.14, -2.70, -6.760.47, 1001.01, 1013.58, 1005.47, 1019.93
1, 1, 11.27, -0.66, 0.26, 9.69, -0.02, -0.05, -0.03, -1.29, -3.23, 0.14, -2.70, -6.760.47, 1001.02, 1013.59, 1005.47, 1019.93
1, 1, 11.27, -0.64, 0.23, 9.67, -0.11, 0.07, -0.08, -1.29, -3.23, 0.14, -2.70, -6.760.47, 1001.02, 1013.59, 1005.46, 1019.93
1, 1, 11.28, -0.61, 0.21, 9.67, 0.07, -0.05, 0.01, -1.29, -3.23, 0.14, -2.70, -6.760.47, 1000.02, 1012.59, 1004.47, 1018.92
1, 1, 11.28, -0.69, 0.25, 9.58, -0.00, 0.14, 0.09, -1.29, -3.23, 0.14, -2.70, -6.760.47, 1000.01, 1012.59, 1004.46, 1018.93
1, 1, 11.29, -0.65, 0.21, 9.68, -0.22, 0.19, -0.10, -1.29, -3.23, 0.14, -2.69, -6.760.47, 1000.02, 1012.59, 1004.46, 1018.93
1, 1, 11.29, -0.69, 0.22, 9.66, 0.02, 0.05, -0.02, -1.29, -3.23, 0.14, -2.69, -6.760.47, 1000.02, 1012.59, 1004.46, 1018.93
1, 1, 11.29, -0.69, 0.22, 9.64, 0.04, 0.02, -0.14, -1.29, -3.23, 0.14, -2.69, -6.760.48, 1000.02, 1012.59, 1004.46, 1018.93
1, 1, 11.30, -0.61, 0.26, 9.68, 0.02, -0.05, -0.02, -1.29, -3.23, 0.14, -2.70, -6.760.48, 1000.02, 1012.59, 1004.46, 1018.93
1, 1, 11.30, -0.63, 0.25, 9.65, -0.05, -0.15, -0.03, -1.29, -3.23, 0.14, -2.70, -6.760.48, 1000.02, 1012.59, 1004.46, 1018.93
1, 1, 11.31, -0.65, 0.21, 9.67, 0.04, -0.15, -0.10, -1.29, -3.23, 0.14, -2.69, -6.760.48, 1000.03, 1012.59, 1004.46, 1018.93
1, 1, 11.31, -0.69, 0.18, 9.65, 0.04, 0.11, 0.04, -1.29, -3.23, 0.14, -2.69, -6.760.48, 1000.02, 1012.59, 1004.45, 1018.93
1, 1, 11.31, -0.65, 0.22, 9.66, -0.14, -0.02, 0.07, -1.29, -3.23, 0.14, -2.69, -6.760.48, 1000.02, 1012.59, 1004.46, 1018.93
1, 1, 11.32, -0.62, 0.24, 9.77, -0.14, -0.10, -0.00, -1.29, -3.23, 0.14, -2.69, -6.760.48, 1000.03, 1012.59, 1004.46, 1018.93
1, 1, 11.32, -0.61, 0.23, 9.67, 0.09, 0.08, -0.13, -1.29, -3.23, 0.14, -2.69, -6.760.48, 1000.03, 1012.58, 1004.46, 1018.93
1, 1, 11.33, -0.69, 0.24, 9.63, 0.04, 0.02, -0.03, -1.29, -3.23, 0.14, -2.69, -6.760.48, 1000.02, 1012.59, 1004.46, 1018.93
1, 1, 11.33, -0.64, 0.22, 9.72, 0.10, -0.30, -0.05, -1.29, -3.23, 0.14, -2.69, -6.760.48, 1000.03, 1012.58, 1004.46, 1018.93
1, 1, 11.33, -0.60, 0.22, 9.72, -0.07, 0.10, -0.23, -1.29, -3.23, 0.14, -2.69, -6.750.48, 1000.03, 1012.58, 1004.46, 1018.93
1, 1, 11.34, -0.71, 0.23, 9.71, -0.14, 0.08, 0.07, -1.29, -3.23, 0.14, -2.69, -6.760.48, 1000.03, 1012.59, 1004.45, 1018.94
1, 1, 11.34, -0.62, 0.22, 9.69, 0.04, -0.18, -0.13, -1.29, -3.23, 0.14, -2.69, -6.750.48, 1000.04, 1012.58, 1004.45, 1018.93
1, 1, 11.35, -0.65, 0.22, 9.64, 0.09, 0.10, 0.07, -1.29, -3.23, 0.14, -2.69, -6.760.48, 1000.03, 1012.58, 1004.45, 1018.93
1, 1, 11.35, -0.65, 0.23, 9.70, -0.00, -0.13, -0.02, -1.29, -3.23, 0.14, -2.69, -6.760.48, 1000.03, 1012.58, 1004.46, 1018.93
1, 1, 11.35, -0.58, 0.28, 9.79, 0.02, 0.04, -0.00, -1.29, -3.22, 0.14, -2.70, -6.750.48, 1000.03, 1012.57, 1004.46, 1018.93
1, 1, 11.36, -0.67, 0.23, 9.71, 0.07, 0.02, -0.14, -1.29, -3.23, 0.14, -2.69, -6.760.48, 1001.03, 1013.58, 1005.45, 1019.94
1, 1, 11.36, -0.66, 0.27, 9.70, -0.08, 0.13, -0.00, -1.29, -3.23, 0.14, -2.70, -6.760.48, 1001.03, 1013.58, 1005.45, 1019.94
1, 1, 11.37, -0.66, 0.18, 9.69, -0.04, 0.07, 0.03, -1.29, -3.23, 0.14, -2.69, -6.760.48, 1001.03, 1013.58, 1005.45, 1019.93
1, 1, 11.37, -0.63, 0.26, 9.72, 0.00, -0.02, 0.15, -1.29, -3.23, 0.14, -2.70, -6.760.48, 1001.03, 1013.58, 1005.46, 1019.93
1, 1, 11.37, -0.67, 0.28, 9.72, -0.13, -0.07, 0.01, -1.29, -3.23, 0.14, -2.70, -6.760.48, 1001.03, 1013.58, 1005.45, 1019.94
1, 1, 11.38, -0.66, 0.27, 9.60, 0.02, 0.13, 0.03, -1.29, -3.23, 0.14, -2.70, -6.760.48, 1000.03, 1012.58, 1004.45, 1018.94
1, 1, 11.38, -0.69, 0.27, 9.73, 0.07, 0.00, 0.03, -1.29, -3.23, 0.14, -2.70, -6.760.48, 1000.03, 1012.58, 1004.45, 1018.94
1, 1, 11.39, -0.62, 0.24, 9.64, 0.19, -0.07, 0.01, -1.29, -3.23, 0.14, -2.70, -6.760.48, 1000.03, 1012.58, 1004.46, 1018.93
1, 1, 11.39, -0.70, 0.24, 9.65, 0.00, -0.12, -0.10, -1.29, -3.23, 0.14, -2.70, -6.760.48, 1000.03, 1012.58, 1004.45, 1018.94
1, 1, 11.39, -0.73, 0.21, 9.70, -0.02, 0.11, -0.08, -1.29, -3.23, 0.14, -2.69, -6.760.48, 1000.03, 1012.58, 1004.45, 1018.94
1, 1, 11.40, -0.63, 0.23, 9.72, 0.22, 0.02, 0.13, -1.29, -3.23, 0.14, -2.70, -6.760.48, 1000.03, 1012.58, 1004.46, 1018.94
1, 1, 11.40, -0.63, 0.25, 9.73, -0.10, 0.00, -0.08, -1.29, -3.23, 0.14, -2.70, -6.760.48, 1000.03, 1012.58, 1004.46, 1018.94
1, 1, 11.41, -0.62, 0.25, 9.73, -0.00, -0.02, 0.01, -1.29, -3.23, 0.14, -2.70, -6.760.48, 1000.03, 1012.58, 1004.46, 1018.94
1, 1, 11.41, -0.62, 0.21, 9.75, -0.00, 0.00, 0.04, -1.29, -3.23, 0.14, -2.70, -6.760.48, 1000.03, 1012.58, 1004.46, 1018.93
1, 1, 11.41, -0.69, 0.24, 9.74, -0.10, 0.00, -0.20, -1.29, -3.23, 0.14, -2.70, -6.760.48, 1000.03, 1012.58, 1004.45, 1018.94
1, 1, 11.42, -0.61, 0.29, 9.70, 0.10, 0.08, -0.08, -1.29, -3.23, 0.14, -2.70, -6.760.49, 1000.03, 1012.57, 1004.46, 1018.94
1, 1, 11.42, -0.60, 0.22, 9.60, 0.02, -0.02, -0.00, -1.29, -3.23, 0.14, -2.70, -6.760.49, 1000.03, 1012.58, 1004.45, 1018.94
1, 1, 11.43, -0.65, 0.20, 9.69, 0.02, 0.07, 0.01, -1.29, -3.23, 0.14, -2.70, -6.760.49, 1000.03, 1012.58, 1004.45, 1018.94
1, 1, 11.43, -0.64, 0.22, 9.70, -0.00, -0.10, -0.16, -1.29, -3.23, 0.14, -2.70, -6.760.49, 1000.03, 1012.57, 1004.45, 1018.94
1, 1, 11.43, -0.69, 0.18, 9.70, 0.07, -0.02, 0.10, -1.29, -3.23, 0.14, -2.69, -6.760.49, 1000.03, 1012.58, 1004.45, 1018.94
1, 1, 11.44, -0.67, 0.28, 9.71, 0.00, 0.02, 0.12, -1.29, -3.23, 0.14, -2.70, -6.760.48, 1000.03, 1012.57, 1004.46, 1018.94
1, 1, 11.44, -0.66, 0.25, 9.77, -0.00, 0.10, 0.04, -1.29, -3.23, 0.14, -2.70, -6.760.48, 1000.03, 1012.58, 1004.45, 1018.94
1, 1, 11.45, -0.69, 0.25, 9.72, -0.13, 0.04, 0.06, -1.29, -3.23, 0.14, -2.70, -6.760.48, 1000.02, 1012.58, 1004.45, 1018.94
1, 1, 11.45, -0.59, 0.30, 9.67, -0.00, -0.00, 0.03, -1.29, -3.23, 0.14, -2.70, -6.760.48, 1000.03, 1012.57, 1004.46, 1018.94
1, 1, 11.45, -0.66, 0.28, 9.62, -0.05, -0.02, -0.06, -1.29, -3.23, 0.14, -2.70, -6.760.48, 1000.03, 1012.58, 1004.45, 1018.94
1, 1, 11.46, -0.68, 0.25, 9.74, -0.00, 0.17, -0.11, -1.29, -3.23, 0.14, -2.70, -6.760.49, 1001.03, 1013.58, 1005.45, 1019.94
1, 1, 11.46, -0.67, 0.25, 9.60, -0.07, 0.02, -0.10, -1.29, -3.23, 0.14, -2.70, -6.760.49, 1001.03, 1013.58, 1005.45, 1019.95
1, 1, 11.47, -0.67, 0.17, 9.78, 0.04, 0.07, -0.11, -1.29, -3.23, 0.14, -2.69, -6.760.49, 1001.03, 1013.58, 1005.44, 1019.94
1, 1, 11.47, -0.62, 0.25, 9.69, 0.12, -0.04, -0.08, -1.29, -3.23, 0.14, -2.70, -6.760.49, 1001.03, 1013.57, 1005.45, 1019.95
1, 1, 11.47, -0.68, 0.30, 9.68, -0.13, -0.04, -0.05, -1.29, -3.23, 0.14, -2.70, -6.760.49, 1001.03, 1013.57, 1005.45, 1019.95
1, 1, 11.48, -0.66, 0.23, 9.64, -0.04, 0.04, 0.01, -1.29, -3.23, 0.14, -2.69, -6.760.49, 1001.03, 1013.58, 1005.44, 1019.95
1, 1, 11.48, -0.62, 0.27, 9.71, 0.04, -0.08, -0.02, -1.29, -3.23, 0.14, -2.70, -6.760.49, 1001.03, 1013.57, 1005.45, 1019.95
1, 1, 11.49, -0.64, 0.22, 9.61, 0.09, 0.00, 0.06, -1.29, -3.23, 0.14, -2.70, -6.760.49, 1001.03, 1013.58, 1005.45, 1019.95
1, 1, 11.49, -0.66, 0.23, 9.73, -0.00, -0.12, -0.02, -1.29, -3.23, 0.14, -2.70, -6.760.49, 1001.03, 1013.57, 1005.45, 1019.95
1, 1, 11.49, -0.63, 0.24, 9.68, 0.05, 0.16, 0.07, -1.29, -3.23, 0.14, -2.70, -6.760.49, 1001.03, 1013.57, 1005.45, 1019.95
1, 1, 11.50, -0.69, 0.25, 9.69, 0.04, 0.07, 0.03, -1.29, -3.23, 0.14, -2.70, -6.760.49, 1000.00, 1011.58, 1003.45, 1017.95
1, 1, 11.50, -0.65, 0.25, 9.71, 0.09, -0.16, 0.07, -1.29, -3.23, 0.14, -2.70, -6.760.49, 1000.00, 1011.57, 1003.45, 1017.95
1, 1, 11.51, -0.63, 0.21, 9.74, -0.05, 0.16, 0.03, -1.29, -3.23, 0.14, -2.70, -6.760.49, 1000.00, 1011.58, 1003.45, 1017.94
1, 1, 11.51, -0.62, 0.21, 9.66, -0.05, 0.08, -0.23, -1.29, -3.23, 0.14, -2.70, -6.760.49, 1000.00, 1011.58, 1003.44, 1017.95
1, 1, 11.51, -0.63, 0.24, 9.68, -0.00, -0.08, -0.00, -1.29, -3.23, 0.14, -2.70, -6.760.49, 1000.00, 1011.57, 1003.45, 1017.95
1, 1, 11.52, -0.61, 0.24, 9.67, -0.02, 0.00, 0.01, -1.29, -3.23, 0.14, -2.70, -6.760.49, 1000.00, 1011.57, 1003.45, 1017.95
1, 1, 11.52, -0.65, 0.20, 9.72, 0.00, -0.18, -0.02, -1.29, -3.23, 0.14, -2.70, -6.760.49, 1000.00, 1011.57, 1003.45, 1017.94
1, 1, 11.53, -0.65, 0.26, 9.70, 0.02, -0.10, -0.08, -1.29, -3.23, 0.14, -2.70, -6.760.49, 1000.00, 1011.57, 1003.45, 1017.95
1, 1, 11.53, -0.67, 0.16, 9.75, -0.08, -0.02, -0.02, -1.29, -3.23, 0.14, -2.69, -6.760.49, 1000.00, 1011.58, 1003.44, 1017.94
1, 1, 11.53, -0.68, 0.20, 9.73, 0.00, -0.02, -0.11, -1.29, -3.23, 0.14, -2.69, -6.760.49, 1000.00, 1011.57, 1003.44, 1017.95
1, 1, 11.54, -0.56, 0.27, 9.73, 0.00, -0.00, 0.07, -1.29, -3.22, 0.14, -2.70, -6.750.49, 1000.00, 1011.56, 1003.45, 1017.94
1, 1, 11.54, -0.65, 0.18, 9.66, -0.00, -0.12, -0.14, -1.29, -3.23, 0.14, -2.69, -6.760.49, 1000.00, 1011.57, 1003.44, 1017.95
1, 1, 11.55, -0.68, 0.18, 9.71, -0.04, -0.16, -0.00, -1.29, -3.23, 0.14, -2.69, -6.760.49, 1000.00, 1011.57, 1003.44, 1017.95
1, 1, 11.55, -0.66, 0.22, 9.68, 0.05, 0.05, -0.06, -1.29, -3.23, 0.14, -2.70, -6.760.49, 1000.00, 1011.57, 1003.44, 1017.95
1, 1, 11.55, -0.70, 0.22, 9.68, 0.04, 0.04, 0.01, -1.29, -3.23, 0.14, -2.70, -6.760.49, 1000.00, 1011.57, 1003.44, 1017.95
1, 1, 11.56, -0.68, 0.29, 9.69, -0.11, -0.00, -0.00, -1.29, -3.23, 0.14, -2.70, -6.760.50, 1001.04, 1013.56, 1005.45, 1019.95
1, 1, 11.56, -0.66, 0.26, 9.68, 0.12, -0.07, 0.10, -1.29, -3.23, 0.14, -2.70, -6.760.49, 1001.04, 1013.57, 1005.45, 1019.95
1, 1, 11.57, -0.67, 0.25, 9.74, 0.09, 0.05, 0.19, -1.29, -3.23, 0.14, -2.70, -6.760.49, 1001.03, 1013.57, 1005.45, 1019.95
1, 1, 11.57, -0.61, 0.19, 9.75, -0.05, 0.08, -0.06, -1.29, -3.23, 0.14, -2.69, -6.760.49, 1001.04, 1013.57, 1005.45, 1019.94
1, 1, 11.57, -0.67, 0.25, 9.65, -0.04, 0.10, -0.08, -1.29, -3.23, 0.14, -2.70, -6.760.49, 1001.04, 1013.57, 1005.45, 1019.95
1, 1, 11.58, -0.62, 0.21, 9.78, -0.10, 0.07, -0.05, -1.29, -3.23, 0.14, -2.69, -6.760.49, 1000.00, 1011.57, 1003.44, 1017.95
1, 1, 11.58, -0.68, 0.24, 9.68, 0.02, 0.04, 0.13, -1.29, -3.23, 0.14, -2.70, -6.760.49, 1000.00, 1011.57, 1003.44, 1017.95
1, 1, 11.59, -0.68, 0.21, 9.76, 0.00, -0.00, -0.05, -1.29, -3.23, 0.14, -2.69, -6.760.49, 1000.00, 1011.57, 1003.44, 1017.95
1, 1, 11.59, -0.65, 0.23, 9.73, 0.15, 0.08, -0.00, -1.29, -3.23, 0.14, -2.70, -6.760.49, 1000.00, 1011.57, 1003.44, 1017.95
1, 1, 11.59, -0.66, 0.23, 9.64, -0.00, -0.05, 0.03, -1.29, -3.23, 0.14, -2.70, -6.760.49, 1000.00, 1011.57, 1003.45, 1017.95
1, 1, 11.60, -0.59, 0.19, 9.67, -0.13, 0.00, 0.03, -1.29, -3.23, 0.14, -2.69, -6.760.49, 1000.00, 1011.57, 1003.45, 1017.94
1, 1, 11.60, -0.58, 0.23, 9.64, -0.07, -0.02, -0.08, -1.29, -3.23, 0.14, -2.70, -6.760.49, 1000.00, 1011.57, 1003.45, 1017.94
1, 1, 11.61, -0.64, 0.18, 9.69, 0.02, 0.19, -0.02, -1.29, -3.23, 0.14, -2.69, -6.760.49, 1000.00, 1011.57, 1003.44, 1017.95
1, 1, 11.61, -0.70, 0.23, 9.73, 0.05, -0.07, -0.00, -1.29, -3.23, 0.14, -2.70, -6.760.49, 1000.00, 1011.57, 1003.44, 1017.95
1, 1, 11.61, -0.65, 0.23, 9.57, -0.16, -0.15, -0.00, -1.29, -3.23, 0.14, -2.69, -6.760.49, 1000.00, 1011.57, 1003.44, 1017.95
1, 1, 11.62, -0.66, 0.27, 9.79, -0.02, -0.13, -0.08, -1.29, -3.23, 0.14, -2.70, -6.760.49, 1000.04, 1012.57, 1004.44, 1018.95
1, 1, 11.62, -0.68, 0.26, 9.66, -0.07, -0.07, -0.00, -1.29, -3.23, 0.14, -2.70, -6.760.49, 1000.04, 1012.57, 1004.44, 1018.95
1, 1, 11.63, -0.65, 0.19, 9.61, -0.02, 0.04, 0.01, -1.29, -3.23, 0.14, -2.69, -6.760.49, 1000.04, 1012.57, 1004.44, 1018.94
1, 1, 11.63, -0.68, 0.23, 9.70, 0.10, -0.07, -0.08, -1.29, -3.23, 0.14, -2.70, -6.760.50, 1000.04, 1012.57, 1004.44, 1018.95
1, 1, 11.64, -0.61, 0.21, 9.67, 0.07, -0.02, 0.03, -1.29, -3.23, 0.14, -2.70, -6.750.50, 1000.00, 1011.56, 1003.45, 1017.95
1, 1, 11.64, -0.65, 0.29, 9.66, 0.10, -0.08, 0.03, -1.29, -3.23, 0.14, -2.70, -6.760.50, 1000.00, 1011.56, 1003.45, 1017.95
1, 1, 11.65, -0.62, 0.24, 9.75, 0.02, 0.05, 0.07, -1.29, -3.22, 0.14, -2.70, -6.750.49, 1000.00, 1011.56, 1003.45, 1017.95
1, 1, 11.65, -0.69, 0.22, 9.78, -0.02, 0.14, -0.00, -1.29, -3.23, 0.14, -2.70, -6.760.49, 1000.00, 1011.57, 1003.44, 1017.95
1, 1, 11.66, -0.61, 0.29, 9.76, 0.05, -0.07, -0.10, -1.29, -3.22, 0.14, -2.70, -6.750.50, 1000.00, 1011.56, 1003.45, 1017.95
1, 1, 11.66, -0.68, 0.28, 9.67, -0.08, 0.25, 0.12, -1.29, -3.23, 0.14, -2.70, -6.760.49, 1000.00, 1011.57, 1003.45, 1017.95
1, 1, 11.66, -0.67, 0.22, 9.73, -0.00, 0.04, -0.05, -1.29, -3.23, 0.14, -2.70, -6.760.49, 1000.00, 1011.57, 1003.44, 1017.95
1, 1, 11.67, -0.62, 0.23, 9.62, -0.04, 0.08, -0.10, -1.29, -3.23, 0.14, -2.70, -6.760.50, 1000.00, 1011.57, 1003.44, 1017.95
1, 1, 11.67, -0.65, 0.18, 9.71, 0.04, 0.07, -0.03, -1.29, -3.23, 0.14, -2.69, -6.760.50, 1000.00, 1011.57, 1003.44, 1017.95
1, 1, 11.68, -0.63, 0.28, 9.67, -0.05, -0.05, 0.09, -1.29, -3.23, 0.14, -2.70, -6.760.50, 1000.00, 1011.56, 1003.45, 1017.95
1, 1, 11.68, -0.62, 0.22, 9.75, -0.07, 0.02, 0.06, -1.29, -3.23, 0.14, -2.70, -6.760.49, 1000.04, 1012.57, 1004.44, 1018.95
1, 1, 11.68, -0.70, 0.23, 9.69, -0.00, -0.00, 0.01, -1.29, -3.23, 0.14, -2.70, -6.760.49, 1000.04, 1012.57, 1004.44, 1018.95
1, 1, 11.69, -0.66, 0.21, 9.72, -0.00, -0.07, -0.05, -1.29, -3.23, 0.14, -2.70, -6.760.49, 1000.04, 1012.57, 1004.44, 1018.95
1, 1, 11.69, -0.68, 0.23, 9.75, 0.05, 0.13, -0.03, -1.29, -3.23, 0.14, -2.70, -6.760.50, 1000.04, 1012.57, 1004.44, 1018.95
1, 1, 11.70, -0.66, 0.17, 9.65, -0.13, -0.21, 0.04, -1.29, -3.23, 0.14, -2.69, -6.760.49, 1000.04, 1012.57, 1004.44, 1018.95
1, 1, 11.70, -0.67, 0.25, 9.72, 0.00, 0.02, -0.05, -1.29, -3.23, 0.14, -2.70, -6.760.50, 1000.04, 1012.57, 1004.44, 1018.95
1, 1, 11.70, -0.63, 0.19, 9.72, -0.07, -0.07, 0.07, -1.29, -3.23, 0.14, -2.69, -6.760.49, 1000.04, 1012.57, 1004.44, 1018.94
1, 1, 11.71, -0.64, 0.26, 9.69, 0.09, -0.10, 0.06, -1.29, -3.23, 0.14, -2.70, -6.760.49, 1000.04, 1012.57, 1004.45, 1018.95
1, 1, 11.71, -0.65, 0.22, 9.64, -0.04, -0.02, -0.10, -1.29, -3.23, 0.14, -2.70, -6.760.50, 1000.04, 1012.57, 1004.44, 1018.95
1, 1, 11.72, -0.71, 0.23, 9.81, -0.02, -0.02, 0.01, -1.29, -3.23, 0.14, -2.70, -6.760.50, 1000.04, 1012.57, 1004.44, 1018.95
1, 1, 11.72, -0.62, 0.23, 9.72, -0.10, -0.00, -0.11, -1.29, -3.23, 0.14, -2.69, -6.760.50, 1000.05, 1012.56, 1004.44, 1018.95
1, 1, 11.72, -0.61, 0.26, 9.70, 0.07, 0.05, 0.07, -1.29, -3.23, 0.14, -2.70, -6.760.50, 1000.04, 1012.56, 1004.45, 1018.95
1, 1, 11.73, -0.69, 0.22, 9.69, -0.08, -0.02, -0.00, -1.29, -3.23, 0.14, -2.69, -6.760.50, 1000.04, 1012.57, 1004.44, 1018.95
1, 1, 11.73, -0.63, 0.29, 9.70, 0.00, -0.08, -0.08, -1.29, -3.23, 0.14, -2.70, -6.760.50, 1000.04, 1012.56, 1004.45, 1018.95
1, 1, 11.74, -0.57, 0.20, 9.71, 0.05, 0.21, -0.00, -1.29, -3.22, 0.14, -2.69, -6.750.50, 1000.05, 1012.56, 1004.44, 1018.94
1, 1, 11.74, -0.69, 0.24, 9.70, -0.02, 0.00, -0.03, -1.29, -3.23, 0.14, -2.70, -6.760.50, 1000.04, 1012.57, 1004.44, 1018.95
1, 1, 11.74, -0.66, 0.22, 9.72, -0.00, 0.05, -0.02, -1.29, -3.23, 0.14, -2.69, -6.760.50, 1000.04, 1012.57, 1004.44, 1018.95
1, 1, 11.75, -0.64, 0.24, 9.73, -0.17, -0.05, -0.05, -1.29, -3.23, 0.14, -2.69, -6.760.50, 1000.05, 1012.57, 1004.44, 1018.95
1, 1, 11.75, -0.66, 0.26, 9.72, 0.07, 0.02, 0.13, -1.29, -3.23, 0.14, -2.70, -6.760.50, 1000.04, 1012.57, 1004.44, 1018.95
1, 1, 11.76, -0.65, 0.23, 9.68, -0.04, 0.10, 0.06, -1.29, -3.23, 0.14, -2.69, -6.760.50, 1000.04, 1012.57, 1004.44, 1018.95
1, 1, 11.76, -0.68, 0.19, 9.68, -0.05, -0.02, -0.06, -1.28, -3.23, 0.14, -2.69, -6.760.50, 1001.04, 1013.57, 1005.43, 1019.95
1, 1, 11.76, -0.65, 0.24, 9.72, -0.04, -0.00, -0.05, -1.29, -3.23, 0.14, -2.69, -6.760.50, 1001.05, 1013.57, 1005.44, 1019.95
1, 1, 11.77, -0.68, 0.26, 9.79, 0.00, 0.00, -0.00, -1.29, -3.23, 0.14, -2.69, -6.760.50, 1001.04, 1013.57, 1005.44, 1019.95
1, 1, 11.77, -0.64, 0.18, 9.74, -0.05, 0.10, 0.12, -1.28, -3.23, 0.14, -2.69, -6.760.50, 1001.05, 1013.57, 1005.44, 1019.94
1, 1, 11.78, -0.66, 0.19, 9.73, 0.05, -0.00, 0.06, -1.28, -3.23, 0.14, -2.69, -6.760.49, 1001.04, 1013.57, 1005.44, 1019.95
1, 1, 11.78, -0.65, 0.25, 9.64, -0.05, 0.00, -0.13, -1.29, -3.23, 0.14, -2.69, -6.760.50, 1000.04, 1012.57, 1004.44, 1018.95
1, 1, 11.78, -0.62, 0.23, 9.63, 0.02, -0.13, -0.03, -1.29, -3.23, 0.14, -2.69, -6.760.50, 1000.05, 1012.57, 1004.44, 1018.95
1, 1, 11.79, -0.64, 0.19, 9.75, -0.04, -0.08, -0.02, -1.28, -3.23, 0.14, -2.69, -6.760.50, 1000.05, 1012.57, 1004.44, 1018.94
1, 1, 11.79, -0.66, 0.22, 9.67, -0.02, 0.13, -0.00, -1.29, -3.23, 0.14, -2.69, -6.760.50, 1000.05, 1012.57, 1004.43, 1018.95
1, 1, 11.80, -0.66, 0.25, 9.71, -0.00, -0.00, -0.06, -1.29, -3.23, 0.14, -2.69, -6.760.50, 1000.05, 1012.57, 1004.43, 1018.95
1, 1, 11.80, -0.65, 0.27, 9.71, 0.00, -0.15, -0.05, -1.29, -3.23, 0.14, -2.69, -6.760.50, 1002.05, 1014.56, 1006.44, 1020.95
1, 1, 11.80, -0.69, 0.25, 9.70, -0.04, -0.04, -0.00, -1.29, -3.23, 0.14, -2.69, -6.760.50, 1002.05, 1014.57, 1006.43, 1020.95
1, 1, 11.81, -0.64, 0.28, 9.78, -0.02, -0.13, -0.00, -1.29, -3.23, 0.14, -2.69, -6.760.50, 1002.05, 1014.56, 1006.44, 1020.95
1, 1, 11.81, -0.67, 0.23, 9.68, -0.05, -0.02, 0.07, -1.29, -3.23, 0.14, -2.69, -6.760.50, 1002.05, 1014.57, 1006.44, 1020.95
1, 1, 11.82, -0.58, 0.27, 9.72, 0.04, -0.07, 0.09, -1.29, -3.22, 0.14, -2.69, -6.750.50, 1002.05, 1014.56, 1006.44, 1020.94
1, 1, 11.82, -0.63, 0.19, 9.76, -0.02, 0.10, -0.00, -1.28, -3.23, 0.14, -2.69, -6.760.50, 1003.05, 1015.57, 1007.44, 1021.94
1, 1, 11.82, -0.64, 0.26, 9.71, -0.07, -0.19, 0.03, -1.29, -3.22, 0.14, -2.69, -6.750.50, 1003.05, 1015.56, 1007.44, 1021.94
1, 1, 11.83, -0.67, 0.18, 9.74, 0.09, 0.11, 0.01, -1.28, -3.23, 0.14, -2.69, -6.760.50, 1003.05, 1015.57, 1007.44, 1021.94
1, 1, 11.83, -0.61, 0.18, 9.68, 0.07, -0.12, -0.08, -1.28, -3.22, 0.14, -2.69, -6.750.50, 1003.05, 1015.57, 1007.44, 1021.94
1, 1, 11.84, -0.73, 0.23, 9.75, -0.10, -0.00, -0.03, -1.29, -3.23, 0.14, -2.69, -6.760.50, 1003.05, 1015.57, 1007.43, 1021.95
1, 1, 11.84, -0.64, 0.21, 9.73, -0.00, 0.11, -0.03, -1.28, -3.23, 0.14, -2.69, -6.760.50, 1002.05, 1014.57, 1006.44, 1020.94
1, 1, 11.84, -0.68, 0.24, 9.67, -0.05, -0.16, -0.00, -1.29, -3.23, 0.14, -2.69, -6.760.50, 1002.05, 1014.57, 1006.44, 1020.95
1, 1, 11.85, -0.69, 0.27, 9.75, -0.08, 0.16, -0.08, -1.29, -3.23, 0.14, -2.69, -6.760.50, 1002.05, 1014.57, 1006.43, 1020.95
1, 1, 11.85, -0.60, 0.20, 9.66, 0.02, -0.12, -0.10, -1.28, -3.22, 0.14, -2.69, -6.750.50, 1002.06, 1014.56, 1006.44, 1020.94
1, 1, 11.86, -0.65, 0.24, 9.68, 0.00, 0.17, 0.01, -1.28, -3.23, 0.14, -2.69, -6.760.50, 1002.05, 1014.56, 1006.43, 1020.95
1, 1, 11.86, -0.62, 0.24, 9.73, -0.05, 0.08, 0.03, -1.28, -3.23, 0.14, -2.69, -6.760.50, 1000.05, 1012.56, 1004.43, 1018.95
1, 1, 11.86, -0.73, 0.24, 9.73, -0.05, -0.04, -0.14, -1.28, -3.23, 0.14, -2.69, -6.760.50, 1000.05, 1012.57, 1004.43, 1018.95
1, 1, 11.87, -0.68, 0.22, 9.73, -0.02, 0.10, -0.11, -1.28, -3.23, 0.14, -2.69, -6.760.50, 1000.06, 1012.57, 1004.43, 1018.95
1, 1, 11.87, -0.68, 0.24, 9.71, -0.13, 0.11, 0.03, -1.28, -3.23, 0.14, -2.69, -6.760.50, 1000.06, 1012.57, 1004.42, 1018.95
1, 1, 11.88, -0.66, 0.28, 9.71, -0.16, -0.00, 0.10, -1.28, -3.23, 0.14, -2.69, -6.760.50, 1000.05, 1012.57, 1004.43, 1018.95
1, 1, 11.88, -0.64, 0.21, 9.67, -0.11, 0.00, 0.09, -1.28, -3.23, 0.14, -2.69, -6.760.50, 1000.06, 1012.57, 1004.43, 1018.94
1, 1, 11.88, -0.64, 0.24, 9.71, 0.00, -0.10, -0.06, -1.28, -3.23, 0.14, -2.69, -6.760.50, 1000.06, 1012.57, 1004.43, 1018.95
1, 1, 11.89, -0.61, 0.24, 9.72, 0.02, -0.10, 0.03, -1.28, -3.23, 0.14, -2.69, -6.750.50, 1000.06, 1012.57, 1004.43, 1018.94
1, 1, 11.89, -0.65, 0.19, 9.62, 0.00, 0.05, -0.05, -1.28, -3.23, 0.14, -2.68, -6.760.50, 1000.06, 1012.57, 1004.42, 1018.94
1, 1, 11.90, -0.67, 0.22, 9.73, -0.04, 0.07, 0.04, -1.28, -3.23, 0.14, -2.69, -6.760.50, 1000.06, 1012.57, 1004.42, 1018.95
1, 1, 11.90, -0.67, 0.23, 9.75, 0.04, -0.25, 0.06, -1.28, -3.23, 0.14, -2.69, -6.760.50, 1000.06, 1012.57, 1004.43, 1018.94
1, 1, 11.90, -0.67, 0.22, 9.65, -0.14, 0.10, 0.03, -1.28, -3.23, 0.14, -2.68, -6.760.50, 1000.06, 1012.57, 1004.43, 1018.94
1, 1, 11.91, -0.63, 0.26, 9.75, 0.00, 0.04, 0.01, -1.28, -3.23, 0.14, -2.69, -6.760.50, 1000.06, 1012.57, 1004.43, 1018.94
1, 1, 11.91, -0.71, 0.18, 9.71, 0.07, -0.02, 0.04, -1.28, -3.23, 0.14, -2.68, -6.760.50, 1000.06, 1012.58, 1004.42, 1018.94
1, 1, 11.92, -0.68, 0.21, 9.63, -0.07, -0.30, -0.08, -1.28, -3.23, 0.14, -2.68, -6.760.50, 1000.06, 1012.57, 1004.43, 1018.94
1, 1, 11.92, -0.63, 0.28, 9.61, -0.07, 0.10, 0.09, -1.28, -3.22, 0.14, -2.69, -6.750.50, 1001.06, 1013.57, 1005.43, 1019.94
1, 1, 11.92, -0.71, 0.23, 9.69, 0.05, -0.07, 0.06, -1.28, -3.23, 0.14, -2.69, -6.760.50, 1001.06, 1013.57, 1005.43, 1019.94
1, 1, 11.93, -0.61, 0.25, 9.76, 0.12, -0.08, -0.32, -1.28, -3.22, 0.14, -2.69, -6.750.50, 1001.07, 1013.56, 1005.43, 1019.94
1, 1, 11.93, -0.69, 0.23, 9.70, 0.09, 0.04, -0.02, -1.28, -3.23, 0.14, -2.69, -6.760.50, 1001.06, 1013.57, 1005.43, 1019.95
1, 1, 11.94, -0.68, 0.19, 9.68, 0.00, 0.10, -0.17, -1.28, -3.23, 0.15, -2.68, -6.760.51, 1001.07, 1013.56, 1005.42, 1019.95
1, 1, 11.94, -0.58, 0.24, 9.66, 0.07, 0.10, 0.04, -1.28, -3.22, 0.14, -2.69, -6.750.51, 1000.07, 1012.56, 1004.43, 1018.95
1, 1, 11.94, -0.66, 0.25, 9.69, 0.10, -0.10, -0.10, -1.28, -3.23, 0.15, -2.69, -6.760.51, 1000.06, 1012.56, 1004.43, 1018.95
1, 1, 11.95, -0.60, 0.21, 9.64, -0.04, 0.04, -0.03, -1.28, -3.22, 0.15, -2.69, -6.750.51, 1000.07, 1012.56, 1004.43, 1018.95
1, 1, 11.95, -0.67, 0.14, 9.66, 0.12, 0.16, -0.03, -1.28, -3.23, 0.15, -2.68, -6.760.51, 1000.07, 1012.57, 1004.42, 1018.95
1, 1, 11.96, -0.72, 0.23, 9.68, 0.05, -0.21, -0.00, -1.28, -3.23, 0.15, -2.69, -6.760.51, 1000.06, 1012.56, 1004.42, 1018.96
1, 1, 11.96, -0.69, 0.23, 9.70, -0.04, 0.04, -0.05, -1.28, -3.23, 0.15, -2.69, -6.760.51, 1000.06, 1012.56, 1004.42, 1018.96
1, 1, 11.96, -0.62, 0.20, 9.74, -0.14, 0.00, -0.02, -1.28, -3.22, 0.15, -2.69, -6.750.51, 1000.07, 1012.56, 1004.42, 1018.95
1, 1, 11.97, -0.67, 0.25, 9.64, -0.07, 0.19, -0.08, -1.28, -3.23, 0.15, -2.69, -6.760.51, 1000.06, 1012.56, 1004.42, 1018.96
1, 1, 11.97, -0.60, 0.24, 9.81, -0.11, 0.11, 0.04, -1.28, -3.23, 0.15, -2.69, -6.750.51, 1000.07, 1012.56, 1004.42, 1018.95
1, 1, 11.98, -0.69, 0.23, 9.73, -0.00, 0.10, -0.03, -1.28, -3.23, 0.15, -2.69, -6.760.51, 1000.06, 1012.56, 1004.42, 1018.96
1, 1, 11.98, -0.61, 0.26, 9.77, -0.11, -0.00, 0.01, -1.28, -3.23, 0.15, -2.69, -6.760.51, 1001.07, 1013.56, 1005.42, 1019.95
1, 1, 11.98, -0.65, 0.22, 9.60, -0.07, 0.10, -0.06, -1.28, -3.23, 0.15, -2.68, -6.760.51, 1001.07, 1013.56, 1005.41, 1019.96
1, 1, 11.99, -0.68, 0.22, 9.68, -0.00, -0.10, 0.04, -1.28, -3.23, 0.15, -2.68, -6.760.51, 1001.07, 1013.57, 1005.41, 1019.95
1, 1, 11.99, -0.66, 0.18, 9.68, -0.00, -0.08, 0.04, -1.28, -3.23, 0.15, -2.68, -6.760.51, 1001.07, 1013.57, 1005.41, 1019.95
1, 1, 12.00, -0.58, 0.20, 9.73, 0.00, 0.10, 0.06, -1.28, -3.23, 0.15, -2.68, -6.760.51, 1001.07, 1013.56, 1005.42, 1019.95
1, 1, 12.00, -0.64, 0.24, 9.60, -0.07, -0.08, 0.01, -1.28, -3.23, 0.15, -2.69, -6.760.51, 1000.07, 1012.56, 1004.42, 1018.95
1, 1, 12.00, -0.58, 0.26, 9.63, -0.05, -0.13, -0.03, -1.28, -3.22, 0.15, -2.69, -6.750.51, 1000.07, 1012.56, 1004.42, 1018.95
1, 1, 12.01, -0.70, 0.23, 9.62, 0.00, 0.08, -0.11, -1.28, -3.23, 0.15, -2.68, -6.760.51, 1000.07, 1012.56, 1004.41, 1018.96
1, 1, 12.01, -0.66, 0.24, 9.64, 0.09, 0.13, 0.04, -1.28, -3.23, 0.15, -2.69, -6.760.51, 1000.07, 1012.56, 1004.42, 1018.95
1, 1, 12.02, -0.59, 0.23, 9.73, -0.04, -0.10, -0.10, -1.28, -3.23, 0.15, -2.68, -6.750.51, 1000.07, 1012.56, 1004.42, 1018.95
1, 1, 12.02, -0.68, 0.21, 9.72, 0.04, 0.22, 0.06, -1.28, -3.23, 0.15, -2.68, -6.760.51, 1000.07, 1012.57, 1004.41, 1018.96
1, 1, 12.02, -0.66, 0.23, 9.64, -0.00, -0.07, -0.02, -1.28, -3.23, 0.15, -2.68, -6.760.51, 1000.07, 1012.56, 1004.41, 1018.96
1, 1, 12.03, -0.66, 0.21, 9.69, -0.13, 0.07, 0.01, -1.28, -3.23, 0.15, -2.68, -6.760.51, 1000.07, 1012.57, 1004.41, 1018.95
1, 1, 12.03, -0.66, 0.21, 9.65, 0.00, -0.12, -0.06, -1.28, -3.23, 0.15, -2.68, -6.760.51, 1000.07, 1012.56, 1004.41, 1018.95
1, 1, 12.04, -0.64, 0.23, 9.75, 0.09, 0.07, 0.04, -1.28, -3.23, 0.15, -2.68, -6.760.51, 1000.07, 1012.56, 1004.41, 1018.95
1, 1, 12.04, -0.66, 0.21, 9.72, -0.11, 0.11, -0.06, -1.28, -3.23, 0.15, -2.68, -6.760.51, 1000.07, 1012.57, 1004.41, 1018.96
1, 1, 12.04, -0.64, 0.25, 9.67, 0.19, -0.00, -0.05, -1.28, -3.23, 0.15, -2.69, -6.760.51, 1000.07, 1012.56, 1004.41, 1018.96
1, 1, 12.05, -0.65, 0.20, 9.67, -0.02, 0.11, -0.05, -1.28, -3.23, 0.15, -2.68, -6.760.51, 1000.07, 1012.56, 1004.41, 1018.96
1, 1, 12.05, -0.67, 0.23, 9.69, -0.04, -0.04, 0.03, -1.28, -3.23, 0.15, -2.68, -6.760.51, 1000.07, 1012.56, 1004.41, 1018.96
1, 1, 12.06, -0.65, 0.23, 9.68, -0.00, 0.00, -0.00, -1.28, -3.23, 0.15, -2.68, -6.760.51, 1000.07, 1012.56, 1004.41, 1018.96
1, 1, 12.06, -0.70, 0.26, 9.73, 0.02, 0.02, 0.01, -1.28, -3.23, 0.15, -2.69, -6.760.51, 1000.06, 1012.56, 1004.41, 1018.96
1, 1, 12.06, -0.63, 0.22, 9.71, -0.08, -0.10, 0.06, -1.28, -3.23, 0.15, -2.68, -6.760.51, 1000.07, 1012.56, 1004.41, 1018.96
1, 1, 12.07, -0.62, 0.24, 9.70, 0.05, 0.00, 0.12, -1.28, -3.23, 0.15, -2.69, -6.760.51, 1000.07, 1012.56, 1004.42, 1018.95
1, 1, 12.07, -0.63, 0.21, 9.75, 0.19, -0.10, -0.14, -1.28, -3.23, 0.15, -2.69, -6.760.51, 1000.07, 1012.56, 1004.41, 1018.96
1, 1, 12.08, -0.65, 0.25, 9.69, -0.07, 0.04, 0.16, -1.28, -3.23, 0.15, -2.69, -6.760.51, 1000.06, 1012.56, 1004.42, 1018.96
1, 1, 12.08, -0.65, 0.20, 9.68, -0.11, 0.00, -0.03, -1.28, -3.23, 0.15, -2.68, -6.760.51, 1002.07, 1014.57, 1006.41, 1020.95
1, 1, 12.08, -0.66, 0.24, 9.65, -0.08, -0.04, 0.01, -1.28, -3.23, 0.15, -2.68, -6.760.51, 1002.07, 1014.56, 1006.41, 1020.96
1, 1, 12.09, -0.64, 0.20, 9.73, -0.16, 0.21, 0.06, -1.28, -3.23, 0.15, -2.68, -6.760.51, 1002.07, 1014.57, 1006.41, 1020.95
1, 1, 12.09, -0.63, 0.22, 9.75, -0.02, -0.04, -0.11, -1.28, -3.23, 0.15, -2.68, -6.760.51, 1002.07, 1014.57, 1006.41, 1020.95
1, 1, 12.10, -0.71, 0.23, 9.70, 0.04, 0.07, 0.01, -1.28, -3.23, 0.15, -2.68, -6.760.51, 1002.06, 1014.57, 1006.41, 1020.96
1, 1, 12.10, -0.66, 0.24, 9.66, -0.02, 0.02, 0.10, -1.28, -3.23, 0.15, -2.68, -6.760.51, 1003.07, 1015.57, 1007.41, 1021.96
1, 1, 12.10, -0.62, 0.20, 9.67, -0.08, 0.08, 0.03, -1.28, -3.23, 0.15, -2.68, -6.760.51, 1003.07, 1015.57, 1007.41, 1021.95
1, 1, 12.11, -0.64, 0.23, 9.70, 0.10, -0.02, -0.02, -1.28, -3.23, 0.15, -2.68, -6.760.51, 1003.07, 1015.57, 1007.41, 1021.95
1, 1, 12.11, -0.58, 0.23, 9.67, -0.04, -0.21, -0.14, -1.28, -3.23, 0.15, -2.68, -6.760.51, 1003.07, 1015.56, 1007.41, 1021.95
1, 1, 12.12, -0.66, 0.23, 9.72, -0.05, 0.05, -0.02, -1.28, -3.23, 0.15, -2.68, -6.760.51, 1003.07, 1015.57, 1007.41, 1021.96
1, 1, 12.12, -0.65, 0.23, 9.73, 0.00, -0.02, -0.14, -1.28, -3.23, 0.15, -2.68, -6.760.51, 1005.07, 1017.56, 1009.41, 1023.96
1, 1, 12.12, -0.68, 0.25, 9.72, 0.18, -0.08, -0.06, -1.28, -3.23, 0.15, -2.68, -6.760.52, 1005.07, 1017.56, 1009.41, 1023.96
1, 1, 12.13, -0.71, 0.22, 9.66, 0.07, -0.05, -0.00, -1.28, -3.23, 0.15, -2.68, -6.760.52, 1005.07, 1017.56, 1009.41, 1023.96
1, 1, 12.13, -0.59, 0.16, 9.71, 0.00, -0.10, -0.08, -1.28, -3.23, 0.15, -2.68, -6.760.52, 1005.08, 1017.56, 1009.41, 1023.95
1, 1, 12.14, -0.63, 0.22, 9.67, -0.14, 0.11, 0.10, -1.28, -3.23, 0.15, -2.68, -6.760.51, 1005.07, 1017.56, 1009.41, 1023.96
1, 1, 12.14, -0.63, 0.25, 9.70, 0.02, -0.07, -0.06, -1.28, -3.23, 0.15, -2.68, -6.760.52, 1006.07, 1018.56, 1010.41, 1024.96
1, 1, 12.14, -0.63, 0.25, 9.71, -0.10, 0.14, -0.14, -1.28, -3.23, 0.15, -2.68, -6.760.52, 1006.08, 1018.56, 1010.41, 1024.96
1, 1, 12.15, -0.64, 0.25, 9.62, 0.15, 0.00, -0.03, -1.28, -3.23, 0.15, -2.69, -6.760.52, 1006.07, 1018.56, 1010.41, 1024.96
1, 1, 12.16, -0.62, 0.32, 9.71, 0.02, -0.07, 0.19, -1.28, -3.23, 0.15, -2.69, -6.760.52, 1006.07, 1018.55, 1010.42, 1024.96
1, 1, 12.16, -0.70, 0.22, 9.68, 0.04, 0.11, -0.08, -1.28, -3.23, 0.15, -2.68, -6.760.52, 1007.07, 1019.56, 1011.40, 1025.96
1, 1, 12.16, -0.62, 0.19, 9.67, -0.07, 0.00, -0.02, -1.28, -3.23, 0.15, -2.68, -6.760.52, 1007.08, 1019.56, 1011.41, 1025.96
1, 1, 12.17, -0.69, 0.22, 9.71, -0.07, 0.16, 0.09, -1.28, -3.23, 0.15, -2.68, -6.760.52, 1007.07, 1019.56, 1011.40, 1025.96
1, 1, 12.17, -0.62, 0.22, 9.66, -0.05, 0.00, -0.03, -1.28, -3.23, 0.15, -2.68, -6.760.52, 1007.07, 1019.56, 1011.41, 1025.96
1, 1, 12.18, -0.57, 0.23, 9.70, 0.04, 0.07, -0.08, -1.28, -3.23, 0.15, -2.68, -6.760.52, 1038.07, 1050.56, 1042.41, 1056.96
1, 1, 12.18, -0.68, 0.22, 9.70, -0.07, -0.19, 0.01, -1.28, -3.23, 0.15, -2.68, -6.760.52, 1038.07, 1050.56, 1042.40, 1056.96
1, 1, 12.19, -0.68, 0.23, 9.75, -0.16, -0.08, -0.10, -1.28, -3.23, 0.15, -2.68, -6.760.52, 1038.08, 1050.56, 1042.40, 1056.96
1, 1, 12.19, -0.62, 0.29, 9.58, -0.04, 0.02, -0.10, -1.28, -3.23, 0.15, -2.68, -6.760.52, 1038.08, 1050.55, 1042.41, 1056.96
1, 1, 12.19, -0.64, 0.24, 9.76, 0.07, -0.19, -0.08, -1.28, -3.23, 0.15, -2.68, -6.760.52, 1038.08, 1050.55, 1042.40, 1056.96
1, 1, 12.20, -0.61, 0.26, 9.73, -0.02, 0.08, 0.03, -1.28, -3.23, 0.15, -2.68, -6.760.52, 1053.08, 1065.55, 1057.40, 1071.96
1, 1, 12.20, -0.62, 0.24, 9.70, 0.05, 0.13, -0.05, -1.28, -3.23, 0.15, -2.68, -6.760.52, 1053.08, 1065.55, 1057.40, 1071.96
1, 1, 12.20, -0.66, 0.15, 9.67, -0.05, 0.08, -0.02, -1.28, -3.23, 0.15, -2.68, -6.760.52, 1053.08, 1065.56, 1057.39, 1071.96
1, 1, 12.21, -0.61, 0.23, 9.71, -0.02, -0.13, 0.06, -1.28, -3.23, 0.15, -2.68, -6.760.52, 1053.08, 1065.55, 1057.40, 1071.96
1, 1, 12.21, -0.62, 0.24, 9.68, -0.02, -0.05, 0.01, -1.28, -3.23, 0.15, -2.68, -6.760.52, 1053.08, 1065.55, 1057.40, 1071.96
1, 1, 12.22, -0.66, 0.20, 9.70, 0.07, -0.16, 0.09, -1.28, -3.23, 0.15, -2.68, -6.760.52, 1054.08, 1066.56, 1058.40, 1072.96
1, 1, 12.22, -0.70, 0.34, 9.56, 0.09, 0.51, -0.11, -1.28, -3.23, 0.15, -2.69, -6.770.52, 1054.07, 1066.55, 1058.40, 1072.98
1, 1, 12.23, -0.51, 0.20, 9.49, 0.02, 0.16, -0.26, -1.28, -3.23, 0.15, -2.68, -6.760.52, 1054.09, 1066.55, 1058.40, 1072.96
1, 1, 12.23, -0.64, 0.31, 9.68, 0.13, -1.83, 0.01, -1.28, -3.22, 0.15, -2.69, -6.750.52, 1054.09, 1066.54, 1058.41, 1072.96
1, 1, 12.23, -0.98, 0.17, 10.02, -0.04, -1.05, 0.12, -1.28, -3.23, 0.15, -2.68, -6.750.52, 1054.09, 1066.55, 1058.40, 1072.96
1, 1, 12.24, -0.73, 0.31, 9.74, -0.05, 1.85, 0.13, -1.28, -3.23, 0.15, -2.69, -6.760.52, 1053.07, 1065.55, 1057.41, 1071.97
1, 1, 12.24, -0.28, 0.25, 9.40, -0.13, 1.55, 0.10, -1.28, -3.22, 0.15, -2.68, -6.750.52, 1053.08, 1065.55, 1057.41, 1071.95
1, 1, 12.24, -0.58, 0.27, 9.66, -0.14, -1.18, 0.26, -1.28, -3.23, 0.15, -2.68, -6.760.52, 1053.08, 1065.56, 1057.41, 1071.96
1, 1, 12.25, -0.83, 0.27, 9.94, 0.10, -0.83, 0.03, -1.28, -3.23, 0.15, -2.68, -6.760.52, 1053.07, 1065.56, 1057.41, 1071.96
1, 1, 12.25, -0.58, 0.22, 9.68, -0.05, 1.03, -0.05, -1.28, -3.23, 0.15, -2.68, -6.760.52, 1053.08, 1065.56, 1057.41, 1071.95
1, 1, 12.26, -0.55, 0.17, 9.56, 0.04, 0.11, -0.16, -1.28, -3.23, 0.15, -2.68, -6.760.52, 1053.08, 1065.56, 1057.40, 1071.95
1, 1, 12.26, -0.74, 0.28, 9.84, 0.07, -1.43, -0.16, -1.28, -3.22, 0.15, -2.68, -6.750.52, 1053.08, 1065.55, 1057.41, 1071.96
1, 1, 12.27, -0.80, 0.23, 9.79, 0.00, 0.14, -0.10, -1.28, -3.23, 0.15, -2.68, -6.760.52, 1053.08, 1065.55, 1057.40, 1071.96
1, 1, 12.27, -0.58, 0.28, 9.61, 0.07, 1.06, -0.06, -1.28, -3.23, 0.15, -2.69, -6.760.52, 1053.08, 1065.55, 1057.41, 1071.96
1, 1, 12.27, -0.61, 0.16, 9.56, 0.10, 0.14, 0.01, -1.28, -3.23, 0.15, -2.68, -6.760.52, 1053.08, 1065.56, 1057.40, 1071.96
1, 1, 12.28, -0.62, 0.17, 9.69, 0.05, -0.47, 0.15, -1.28, -3.23, 0.15, -2.68, -6.760.52, 1055.08, 1067.55, 1059.41, 1073.96
1, 1, 12.28, -0.74, 0.14, 9.75, -0.08, -1.08, 0.24, -1.28, -3.22, 0.15, -2.68, -6.750.52, 1055.09, 1067.56, 1059.41, 1073.95
1, 1, 12.28, -0.79, 0.16, 9.76, -0.07, -0.44, 0.07, -1.28, -3.22, 0.15, -2.68, -6.750.52, 1055.09, 1067.55, 1059.41, 1073.95
1, 1, 12.29, -0.62, 0.27, 9.64, -0.16, 0.86, -0.05, -1.28, -3.22, 0.15, -2.68, -6.750.52, 1055.08, 1067.55, 1059.42, 1073.95
1, 1, 12.29, -0.48, 0.28, 9.58, -0.05, 0.71, -0.02, -1.28, -3.22, 0.15, -2.68, -6.750.52, 1055.08, 1067.55, 1059.42, 1073.95
1, 1, 12.30, -0.67, 0.27, 9.74, 0.05, -0.76, -0.11, -1.28, -3.22, 0.15, -2.68, -6.750.52, 1053.08, 1065.55, 1057.41, 1071.95
1, 1, 12.30, -0.86, 0.27, 9.81, 0.18, -0.53, -0.28, -1.28, -3.23, 0.15, -2.69, -6.760.52, 1053.08, 1065.55, 1057.41, 1071.96
1, 1, 12.31, -0.59, 0.18, 9.61, -0.05, 1.17, -0.32, -1.28, -3.22, 0.15, -2.68, -6.750.53, 1053.09, 1065.55, 1057.40, 1071.96
1, 1, 12.31, -0.57, 0.18, 9.59, 0.04, -0.08, -0.06, -1.28, -3.22, 0.15, -2.68, -6.750.53, 1053.10, 1065.54, 1057.40, 1071.96
1, 1, 12.31, -0.82, 0.15, 9.74, 0.05, -1.40, 0.24, -1.28, -3.22, 0.15, -2.68, -6.750.52, 1053.09, 1065.55, 1057.40, 1071.96
1, 1, 12.32, -0.74, 0.18, 9.80, -0.30, -0.18, 0.21, -1.28, -3.22, 0.15, -2.68, -6.750.52, 1053.10, 1065.55, 1057.41, 1071.95
1, 1, 12.32, -0.61, 0.21, 9.61, -0.13, 0.94, 0.18, -1.28, -3.22, 0.15, -2.68, -6.750.52, 1053.09, 1065.55, 1057.41, 1071.95
1, 1, 12.32, -0.55, 0.27, 9.72, 0.02, -0.21, 0.04, -1.28, -3.22, 0.15, -2.68, -6.740.52, 1053.09, 1065.54, 1057.42, 1071.94
1, 1, 12.33, -0.64, 0.63, 9.80, -0.05, -1.24, 0.01, -1.29, -3.22, 0.15, -2.70, -6.740.52, 1053.08, 1065.52, 1057.44, 1071.96
1, 1, 12.33, -0.96, 0.33, 9.77, 0.10, 0.21, 0.07, -1.28, -3.23, 0.15, -2.69, -6.750.52, 1053.08, 1065.55, 1057.41, 1071.96
1, 1, 12.34, -0.31, 0.55, 9.38, 0.13, 4.01, -0.51, -1.29, -3.23, 0.15, -2.70, -6.760.53, 1054.07, 1066.53, 1058.42, 1072.98
1, 1, 12.34, -0.05, 0.44, 9.10, 0.15, 0.53, -0.03, -1.29, -3.22, 0.15, -2.69, -6.750.52, 1054.08, 1066.53, 1058.42, 1072.97
1, 1, 12.35, -1.07, 0.05, 9.81, 0.28, -4.30, 0.41, -1.28, -3.23, 0.15, -2.68, -6.760.52, 1054.08, 1066.57, 1058.40, 1072.96
1, 1, 12.35, -1.05, 0.29, 10.00, -0.13, 0.02, 0.36, -1.28, -3.23, 0.15, -2.69, -6.760.52, 1054.07, 1066.56, 1058.41, 1072.96
1, 1, 12.35, -0.35, 0.15, 9.46, -0.33, 3.29, 0.50, -1.28, -3.23, 0.15, -2.68, -6.760.51, 1054.07, 1066.57, 1058.42, 1072.94
1, 1, 12.36, -0.46, 0.17, 9.51, 0.00, -0.79, 0.52, -1.28, -3.22, 0.14, -2.68, -6.750.50, 1053.07, 1065.57, 1057.43, 1071.93
1, 1, 12.36, -0.93, 0.42, 10.03, 0.02, -2.25, 0.47, -1.28, -3.23, 0.14, -2.69, -6.760.50, 1053.05, 1065.57, 1057.44, 1071.94
1, 1, 12.36, -0.82, 0.34, 9.77, 0.07, 2.80, -0.14, -1.28, -3.23, 0.14, -2.69, -6.780.50, 1053.03, 1065.59, 1057.42, 1071.96
1, 1, 12.37, -0.17, 0.26, 9.24, 0.13, 2.24, -0.78, -1.28, -3.23, 0.14, -2.69, -6.760.51, 1053.06, 1065.57, 1057.42, 1071.95
1, 1, 12.37, -0.55, 0.25, 9.62, 0.45, -2.39, -0.28, -1.28, -3.23, 0.15, -2.69, -6.760.51, 1053.06, 1065.56, 1057.42, 1071.96
1, 1, 12.38, -1.03, 0.16, 10.09, 0.07, -1.31, -0.39, -1.28, -3.23, 0.15, -2.68, -6.770.52, 1053.06, 1065.57, 1057.40, 1071.97
1, 1, 12.38, -0.70, 0.12, 9.53, 0.09, 1.23, -0.05, -1.28, -3.23, 0.15, -2.68, -6.770.52, 1053.06, 1065.57, 1057.40, 1071.97
1, 1, 12.39, -0.53, 0.24, 9.65, -0.19, 0.11, 0.33, -1.28, -3.23, 0.15, -2.69, -6.760.51, 1053.06, 1065.56, 1057.42, 1071.96
1, 1, 12.39, -0.83, 0.23, 9.79, -0.14, -0.95, 0.52, -1.28, -3.23, 0.14, -2.69, -6.770.50, 1053.05, 1065.58, 1057.41, 1071.96
1, 1, 12.39, -0.71, 0.22, 9.72, 0.00, 0.82, 0.30, -1.28, -3.23, 0.14, -2.69, -6.770.50, 1053.05, 1065.58, 1057.42, 1071.95
1, 1, 12.40, -0.23, 0.34, 9.28, -0.28, 1.72, 0.06, -1.28, -3.23, 0.14, -2.69, -6.760.50, 1053.05, 1065.57, 1057.43, 1071.95
1, 1, 12.40, -0.62, 0.10, 9.63, 0.19, -2.66, 0.03, -1.28, -3.23, 0.14, -2.68, -6.760.50, 1053.06, 1065.58, 1057.42, 1071.93
1, 1, 12.40, -0.99, 0.25, 9.98, 0.09, -2.85, -0.23, -1.28, -3.22, 0.14, -2.69, -6.750.50, 1053.07, 1065.56, 1057.43, 1071.94
1, 1, 12.41, -0.74, 0.25, 9.93, 0.02, 1.93, -0.49, -1.28, -3.22, 0.15, -2.69, -6.750.51, 1053.07, 1065.56, 1057.42, 1071.95
1, 1, 12.41, -0.50, 0.28, 9.52, -0.04, 2.39, -0.23, -1.28, -3.23, 0.15, -2.69, -6.760.51, 1053.06, 1065.56, 1057.41, 1071.96
1, 1, 12.42, -0.32, 0.34, 9.52, 0.00, 0.27, -0.31, -1.29, -3.23, 0.15, -2.69, -6.760.52, 1053.07, 1065.55, 1057.42, 1071.96
1, 1, 12.42, -0.81, 0.29, 9.82, 0.00, -1.34, 0.10, -1.28, -3.23, 0.15, -2.69, -6.770.52, 1053.06, 1065.56, 1057.41, 1071.97
1, 1, 12.43, -0.80, 0.06, 9.69, -0.05, 0.74, -0.00, -1.28, -3.23, 0.15, -2.68, -6.770.51, 1053.06, 1065.58, 1057.39, 1071.97
1, 1, 12.43, -0.40, 0.12, 9.55, -0.11, 0.04, 0.24, -1.28, -3.23, 0.15, -2.68, -6.760.51, 1053.08, 1065.56, 1057.41, 1071.95
1, 1, 12.43, -0.78, 0.14, 9.85, -0.14, -2.30, 0.50, -1.28, -3.22, 0.14, -2.68, -6.750.51, 1053.07, 1065.57, 1057.42, 1071.94
1, 1, 12.44, -0.98, -0.02, 10.11, 0.05, 0.33, 0.06, -1.28, -3.23, 0.14, -2.67, -6.770.50, 1054.07, 1066.59, 1058.40, 1072.94
1, 1, 12.44, -0.32, 0.27, 9.61, -0.10, 2.43, -0.46, -1.28, -3.23, 0.15, -2.69, -6.750.51, 1054.07, 1066.56, 1058.42, 1072.95
1, 1, 12.44, -0.68, 0.03, 9.93, 0.21, -1.76, -0.37, -1.28, -3.23, 0.15, -2.68, -6.760.51, 1054.08, 1066.57, 1058.40, 1072.95
1, 1, 12.45, -1.17, 0.26, 10.10, 0.13, -0.04, -0.39, -1.28, -3.24, 0.15, -2.69, -6.780.52, 1054.06, 1066.57, 1058.39, 1072.99
1, 1, 12.45, -0.19, 0.29, 9.37, -0.02, 5.55, -0.64, -1.28, -3.24, 0.15, -2.69, -6.780.53, 1054.06, 1066.56, 1058.38, 1073.00
1, 1, 12.46, -0.09, 0.04, 9.02, 0.00, -0.89, 0.03, -1.28, -3.23, 0.15, -2.68, -6.770.53, 1053.08, 1065.56, 1057.38, 1071.97
1, 1, 12.46, -1.01, 0.04, 9.98, 0.07, -6.57, 0.47, -1.28, -3.23, 0.15, -2.68, -6.760.52, 1053.09, 1065.56, 1057.40, 1071.96
1, 1, 12.47, -1.33, -0.04, 10.22, 0.00, 1.11, 0.16, -1.28, -3.24, 0.15, -2.67, -6.780.52, 1053.07, 1065.59, 1057.38, 1071.97
1, 1, 12.47, -0.28, 0.13, 9.44, -0.08, 2.43, 0.10, -1.28, -3.22, 0.15, -2.68, -6.750.52, 1053.09, 1065.55, 1057.41, 1071.95
1, 1, 12.47, -0.58, 0.17, 9.86, -0.02, -3.29, 0.29, -1.28, -3.22, 0.15, -2.68, -6.740.52, 1053.09, 1065.54, 1057.43, 1071.94
1, 1, 12.48, -1.30, 0.34, 10.35, 0.13, 0.42, -0.06, -1.29, -3.23, 0.15, -2.69, -6.770.52, 1053.05, 1065.56, 1057.40, 1071.98
1, 1, 12.48, -0.12, 0.40, 9.29, -0.00, 6.25, -0.52, -1.29, -3.23, 0.15, -2.70, -6.770.52, 1053.05, 1065.55, 1057.40, 1071.99
1, 1, 12.48, 0.15, 0.29, 8.94, 0.05, -0.57, -0.20, -1.29, -3.22, 0.15, -2.69, -6.750.52, 1053.08, 1065.54, 1057.41, 1071.97
1, 1, 12.49, -1.06, 0.20, 9.92, 0.18, -5.78, -0.02, -1.28, -3.23, 0.15, -2.69, -6.760.53, 1053.08, 1065.55, 1057.40, 1071.98
1, 1, 12.49, -1.08, 0.06, 10.02, 0.02, 0.25, -0.20, -1.28, -3.23, 0.15, -2.68, -6.770.53, 1053.08, 1065.56, 1057.39, 1071.98
1, 1, 12.50, -0.51, -0.00, 9.67, -0.08, 1.35, 0.30, -1.28, -3.22, 0.15, -2.68, -6.750.52, 1053.10, 1065.55, 1057.40, 1071.95
1, 1, 12.50, -0.79, 0.18, 9.80, 0.13, -1.78, 0.26, -1.28, -3.22, 0.15, -2.69, -6.750.52, 1053.09, 1065.54, 1057.42, 1071.96
1, 1, 12.51, -0.96, 0.30, 10.11, -0.10, 0.22, 0.29, -1.29, -3.23, 0.15, -2.69, -6.760.52, 1053.07, 1065.55, 1057.41, 1071.97
1, 1, 12.51, -0.31, 0.46, 9.24, -0.30, 4.27, -0.16, -1.29, -3.23, 0.15, -2.70, -6.760.52, 1053.06, 1065.55, 1057.41, 1071.98
1, 1, 12.51, -0.18, 0.28, 9.05, 0.24, -0.91, -0.34, -1.29, -3.22, 0.15, -2.69, -6.750.52, 1053.08, 1065.54, 1057.42, 1071.97
1, 1, 12.52, -0.76, 0.32, 9.73, -0.19, -4.21, -0.06, -1.28, -3.22, 0.15, -2.69, -6.740.53, 1054.09, 1066.53, 1058.42, 1072.96
1, 1, 12.52, -1.30, 0.03, 10.21, 0.24, -1.76, -0.17, -1.28, -3.22, 0.15, -2.68, -6.750.53, 1054.10, 1066.55, 1058.40, 1072.96
1, 1, 12.52, -0.77, 0.21, 9.80, -0.20, 1.70, 0.10, -1.28, -3.22, 0.15, -2.69, -6.740.53, 1054.10, 1066.53, 1058.42, 1072.96
1, 1, 12.53, -0.42, 0.26, 9.66, -0.13, 2.79, 0.32, -1.28, -3.22, 0.15, -2.69, -6.750.52, 1054.09, 1066.54, 1058.42, 1072.96
1, 1, 12.53, -0.40, 0.37, 9.53, -0.16, -0.39, 0.30, -1.29, -3.22, 0.15, -2.69, -6.750.52, 1054.08, 1066.54, 1058.43, 1072.96
1, 1, 12.54, -0.54, 0.28, 9.69, -0.10, -0.12, 0.04, -1.28, -3.22, 0.15, -2.69, -6.750.52, 1054.08, 1066.55, 1058.42, 1072.96
1, 1, 12.54, -0.82, 0.36, 9.77, -0.04, -0.33, -0.16, -1.28, -3.23, 0.15, -2.69, -6.760.52, 1054.07, 1066.55, 1058.41, 1072.97
1, 1, 12.55, -0.41, 0.11, 9.46, 0.07, 0.72, -0.28, -1.28, -3.22, 0.15, -2.68, -6.750.52, 1054.10, 1066.55, 1058.41, 1072.95
1, 1, 12.55, -0.62, 0.23, 9.70, 0.09, -2.47, -0.02, -1.28, -3.22, 0.15, -2.68, -6.740.52, 1054.10, 1066.53, 1058.42, 1072.95
1, 1, 12.55, -1.10, 0.23, 9.94, 0.19, -1.86, -0.03, -1.28, -3.22, 0.15, -2.69, -6.740.53, 1054.10, 1066.53, 1058.42, 1072.96
1, 1, 12.56, -0.53, 0.40, 9.55, -0.34, 4.33, -0.25, -1.29, -3.22, 0.15, -2.69, -6.750.53, 1054.08, 1066.53, 1058.41, 1072.97
1, 1, 12.56, -0.24, 0.19, 9.44, -0.04, -0.15, 0.32, -1.28, -3.22, 0.15, -2.68, -6.740.52, 1054.10, 1066.53, 1058.42, 1072.94
1, 1, 12.56, -0.98, 0.33, 10.13, 0.00, -3.12, 0.33, -1.28, -3.22, 0.15, -2.69, -6.750.52, 1054.09, 1066.54, 1058.42, 1072.95
1, 1, 12.57, -1.01, 0.17, 10.04, -0.30, 3.03, 0.01, -1.28, -3.23, 0.15, -2.68, -6.770.52, 1054.07, 1066.58, 1058.38, 1072.97
1, 1, 12.57, 0.01, 0.30, 9.14, -0.02, 2.68, 0.06, -1.28, -3.22, 0.15, -2.68, -6.750.52, 1054.09, 1066.55, 1058.42, 1072.95
1, 1, 12.58, -0.53, 0.18, 9.39, -0.07, -2.97, -0.11, -1.28, -3.22, 0.15, -2.68, -6.750.52, 1053.09, 1065.55, 1057.41, 1071.95
1, 1, 12.58, -1.07, 0.19, 9.99, 0.13, -2.41, -0.28, -1.28, -3.23, 0.15, -2.68, -6.750.52, 1053.09, 1065.55, 1057.40, 1071.96
1, 1, 12.59, -0.65, 0.14, 9.62, 0.04, 1.08, -0.29, -1.28, -3.22, 0.15, -2.68, -6.740.53, 1053.11, 1065.54, 1057.41, 1071.95
1, 1, 12.59, -0.76, 0.02, 9.79, 0.04, -1.28, -0.10, -1.28, -3.22, 0.15, -2.67, -6.740.53, 1053.12, 1065.54, 1057.40, 1071.94
1, 1, 12.59, -0.93, 0.34, 9.95, -0.20, 0.45, -0.16, -1.28, -3.22, 0.15, -2.68, -6.750.53, 1053.10, 1065.53, 1057.40, 1071.97
1, 1, 12.60, -0.09, 0.27, 9.39, -0.24, 4.02, -0.31, -1.28, -3.22, 0.15, -2.68, -6.740.53, 1054.11, 1066.53, 1058.40, 1072.96
1, 1, 12.60, -0.47, 0.30, 9.60, 0.24, -4.48, 0.50, -1.28, -3.21, 0.15, -2.68, -6.720.53, 1054.12, 1066.51, 1058.43, 1072.94
1, 1, 12.60, -1.38, 0.48, 10.25, -0.04, -1.72, 0.27, -1.28, -3.22, 0.15, -2.69, -6.750.53, 1054.09, 1066.53, 1058.41, 1072.97
1, 1, 12.61, -0.46, 0.45, 9.34, -0.11, 6.97, -0.26, -1.28, -3.23, 0.15, -2.69, -6.770.53, 1054.07, 1066.55, 1058.39, 1072.99
1, 1, 12.61, 0.41, 0.39, 8.57, 0.15, -0.21, -0.06, -1.28, -3.21, 0.15, -2.69, -6.720.53, 1054.12, 1066.50, 1058.44, 1072.94
1, 1, 12.62, -1.13, 0.17, 10.07, 0.33, -7.98, 0.06, -1.28, -3.21, 0.15, -2.68, -6.730.53, 1053.12, 1065.52, 1057.42, 1071.94
1, 1, 12.62, -1.48, 0.06, 10.61, 0.04, -0.02, -0.39, -1.28, -3.22, 0.15, -2.67, -6.740.53, 1053.12, 1065.54, 1057.40, 1071.95
1, 1, 12.62, -0.21, 0.09, 9.55, -0.02, 5.53, -0.16, -1.28, -3.21, 0.15, -2.68, -6.730.53, 1053.13, 1065.52, 1057.41, 1071.94
1, 1, 12.63, -0.41, 0.34, 9.67, -0.02, -0.60, 0.42, -1.28, -3.22, 0.15, -2.69, -6.740.53, 1053.10, 1065.52, 1057.42, 1071.96
1, 1, 12.63, -0.74, 0.53, 9.79, -0.24, 0.42, 0.24, -1.29, -3.23, 0.15, -2.70, -6.760.53, 1053.08, 1065.53, 1057.41, 1071.98
1, 1, 12.64, -0.27, 0.39, 9.28, -0.28, 3.59, 0.12, -1.28, -3.23, 0.15, -2.69, -6.770.53, 1055.07, 1067.55, 1059.40, 1073.98
1, 1, 12.64, -0.48, 0.42, 9.22, 0.04, -2.01, 0.32, -1.28, -3.23, 0.15, -2.69, -6.760.52, 1055.07, 1067.55, 1059.41, 1073.97
1, 1, 12.65, -1.04, 0.24, 9.84, -0.02, -1.67, -0.06, -1.28, -3.23, 0.15, -2.68, -6.770.52, 1055.07, 1067.57, 1059.38, 1073.97
1, 1, 12.65, -0.64, 0.21, 9.46, 0.00, 1.23, -0.26, -1.28, -3.23, 0.15, -2.68, -6.760.53, 1055.08, 1067.56, 1059.39, 1073.97
1, 1, 12.65, -0.42, 0.15, 9.45, 0.02, -1.96, 0.30, -1.28, -3.22, 0.15, -2.67, -6.740.52, 1055.11, 1067.54, 1059.42, 1073.93
1, 1, 12.66, -1.17, 0.48, 10.35, -0.08, -1.63, 0.21, -1.28, -3.23, 0.15, -2.69, -6.750.52, 1054.08, 1066.54, 1058.41, 1072.97
1, 1, 12.66, -0.53, 0.54, 9.67, -0.20, 5.21, 0.16, -1.29, -3.23, 0.15, -2.69, -6.770.52, 1054.06, 1066.56, 1058.40, 1072.98
1, 1, 12.67, -1.57, 0.14, 10.37, 0.24, -5.37, 0.16, -1.28, -3.22, 0.15, -2.68, -6.730.51, 1054.10, 1066.55, 1058.43, 1072.92
1, 1, 12.67, -0.59, 0.39, 9.62, -0.04, 3.14, -0.17, -1.28, -3.21, 0.15, -2.69, -6.720.52, 1054.11, 1066.52, 1058.45, 1072.92
1, 1, 12.68, -0.42, 0.31, 9.16, 0.04, 3.88, -0.13, -1.28, -3.22, 0.15, -2.69, -6.750.52, 1065.08, 1077.55, 1069.42, 1083.95
1, 1, 12.68, -0.60, -0.09, 9.61, 0.13, -1.86, 0.23, -1.27, -3.22, 0.15, -2.67, -6.750.51, 1065.10, 1077.57, 1069.41, 1083.92
1, 1, 12.69, -0.97, 0.35, 10.05, -0.10, -2.10, 0.26, -1.28, -3.22, 0.15, -2.69, -6.740.51, 1065.08, 1077.55, 1069.43, 1083.94
1, 1, 12.69, -0.52, 0.02, 9.68, -0.08, 2.65, -0.10, -1.27, -3.22, 0.15, -2.67, -6.750.51, 1065.09, 1077.57, 1069.41, 1083.93
1, 1, 12.69, -0.27, 0.20, 9.38, 0.05, 1.09, 0.03, -1.28, -3.22, 0.15, -2.68, -6.740.51, 1065.09, 1077.55, 1069.43, 1083.93
1, 1, 12.70, -0.78, 0.42, 10.07, -0.14, -2.16, -0.13, -1.28, -3.22, 0.15, -2.69, -6.750.51, 1087.08, 1099.55, 1091.43, 1105.95
1, 1, 12.70, -0.83, 0.17, 9.58, 0.09, 0.85, -0.19, -1.28, -3.23, 0.15, -2.68, -6.760.52, 1087.08, 1099.57, 1091.40, 1105.95
1, 1, 12.70, -0.23, 0.10, 9.43, 0.15, 1.11, -0.16, -1.28, -3.22, 0.15, -2.67, -6.740.52, 1087.10, 1099.55, 1091.42, 1105.93
1, 1, 12.71, -1.15, 0.27, 10.27, 0.00, -3.92, 0.23, -1.28, -3.22, 0.15, -2.68, -6.750.52, 1087.08, 1099.55, 1091.42, 1105.95
1, 1, 12.71, -0.94, 0.03, 9.81, -0.17, 0.04, 0.26, -1.27, -3.22, 0.15, -2.67, -6.740.51, 1087.10, 1099.56, 1091.42, 1105.92
1, 1, 12.72, -0.07, 0.66, 9.42, -0.19, 3.84, 0.07, -1.29, -3.21, 0.15, -2.70, -6.730.51, 1094.08, 1106.52, 1098.46, 1112.94
1, 1, 12.72, -0.71, 0.11, 9.67, 0.13, -1.14, 0.07, -1.28, -3.22, 0.15, -2.67, -6.750.51, 1094.08, 1106.57, 1098.41, 1112.93
1, 1, 12.73, -0.49, 0.47, 9.73, -0.13, 0.79, -0.16, -1.28, -3.22, 0.15, -2.69, -6.750.51, 1094.07, 1106.55, 1098.43, 1112.95
1, 1, 12.73, -0.36, 0.63, 9.39, -0.14, 2.80, -0.29, -1.29, -3.23, 0.15, -2.70, -6.770.52, 1094.05, 1106.55, 1098.42, 1112.98
1, 1, 12.73, -0.52, 0.09, 9.50, 0.48, -2.01, -0.17, -1.28, -3.23, 0.15, -2.67, -6.760.52, 1094.09, 1106.57, 1098.40, 1112.95
1, 1, 12.74, -1.02, 0.52, 9.74, 0.13, -1.35, -0.28, -1.29, -3.23, 0.15, -2.70, -6.770.52, 1099.06, 1111.55, 1103.40, 1117.99
1, 1, 12.74, -0.54, 0.02, 9.73, 0.36, 1.32, -0.05, -1.28, -3.23, 0.15, -2.67, -6.760.52, 1099.09, 1111.56, 1103.40, 1117.95
1, 1, 12.74, -0.40, 0.47, 9.34, -0.16, 0.22, 0.64, -1.29, -3.22, 0.15, -2.70, -6.750.51, 1099.06, 1111.54, 1103.43, 1117.96
1, 1, 12.75, -0.91, 0.24, 10.06, -0.16, -3.52, 0.59, -1.28, -3.22, 0.14, -2.68, -6.750.51, 1099.08, 1111.56, 1103.43, 1117.93
1, 1, 12.75, -1.28, 0.42, 9.84, 0.15, -0.34, 0.65, -1.29, -3.23, 0.14, -2.69, -6.760.50, 1099.04, 1111.57, 1103.43, 1117.95
1, 1, 12.76, -0.03, -0.27, 9.41, -0.10, 2.95, -0.28, -1.27, -3.21, 0.14, -2.66, -6.730.50, 1104.11, 1116.57, 1108.43, 1122.88
1, 1, 12.76, -0.90, 0.23, 9.55, 0.42, -0.22, -0.55, -1.28, -3.23, 0.15, -2.69, -6.770.51, 1104.05, 1116.57, 1108.41, 1122.96
1, 1, 12.77, -1.04, -0.13, 10.03, 0.25, -5.03, -0.48, -1.28, -3.21, 0.15, -2.67, -6.730.51, 1104.11, 1116.55, 1108.43, 1122.91
1, 1, 12.77, -1.08, -0.31, 10.01, 0.36, -1.87, -0.51, -1.27, -3.21, 0.15, -2.67, -6.720.52, 1104.13, 1116.54, 1108.43, 1122.90
1, 1, 12.77, -0.87, 0.29, 10.22, -0.46, -0.82, -0.02, -1.28, -3.20, 0.15, -2.69, -6.700.52, 1104.13, 1116.49, 1108.47, 1122.91
1, 1, 12.78, -0.41, -0.04, 9.66, 0.05, 2.74, 0.53, -1.28, -3.20, 0.15, -2.67, -6.700.51, 1105.14, 1117.52, 1109.46, 1123.89
1, 1, 12.78, 0.03, 0.78, 9.14, -0.56, 5.38, -0.05, -1.30, -3.21, 0.15, -2.71, -6.730.51, 1105.07, 1117.50, 1109.48, 1123.95
1, 1, 12.78, -0.73, 0.21, 9.62, 0.04, -2.05, 0.88, -1.28, -3.22, 0.14, -2.68, -6.750.50, 1105.07, 1117.56, 1109.43, 1123.93
1, 1, 12.79, -0.63, 0.37, 9.65, 0.02, -0.18, -0.37, -1.28, -3.22, 0.15, -2.69, -6.740.51, 1105.08, 1117.54, 1109.44, 1123.94
1, 1, 12.79, -1.26, -0.25, 9.60, 0.41, -1.83, -0.68, -1.27, -3.23, 0.15, -2.66, -6.760.51, 1105.09, 1117.58, 1109.40, 1123.93
1, 1, 12.80, -0.05, -0.33, 9.42, 0.24, 1.87, -1.12, -1.27, -3.20, 0.15, -2.66, -6.710.53, 1107.16, 1119.52, 1111.42, 1125.90
1, 1, 12.80, -1.22, -0.11, 10.42, 0.39, -7.44, -0.05, -1.28, -3.20, 0.15, -2.68, -6.700.53, 1107.15, 1119.50, 1111.44, 1125.91
1, 1, 12.81, -1.88, 0.29, 11.14, -0.46, -6.08, 0.29, -1.28, -3.19, 0.15, -2.69, -6.680.53, 1107.17, 1119.46, 1111.48, 1125.90
1, 1, 12.81, 0.67, 0.43, 8.85, -0.20, 13.29, 0.04, -1.29, -3.18, 0.15, -2.70, -6.670.52, 1107.15, 1119.45, 1111.50, 1125.89
1, 1, 12.81, 0.66, 0.52, 8.93, -0.71, 3.21, 0.56, -1.29, -3.20, 0.15, -2.70, -6.700.52, 1107.12, 1119.48, 1111.48, 1125.91
1, 1, 12.82, -1.94, 0.75, 10.82, -0.27, -12.57, 1.75, -1.29, -3.20, 0.14, -2.70, -6.710.51, 1107.09, 1119.51, 1111.48, 1125.92
1, 1, 12.82, -0.78, 0.45, 9.31, -0.34, 10.16, 0.55, -1.28, -3.22, 0.14, -2.69, -6.750.49, 1107.05, 1119.57, 1111.44, 1125.93
1, 1, 12.82, 1.11, 0.50, 7.84, 0.10, 8.17, -0.13, -1.29, -3.21, 0.14, -2.70, -6.710.48, 1107.07, 1119.54, 1111.50, 1125.89
1, 1, 12.83, -1.57, 0.52, 10.30, -0.08, -9.89, 1.39, -1.28, -3.23, 0.14, -2.69, -6.770.48, 1107.02, 1119.61, 1111.44, 1125.94
1, 1, 12.83, -1.45, 0.36, 10.01, 0.54, 0.10, 0.52, -1.28, -3.23, 0.13, -2.69, -6.770.47, 1107.01, 1119.61, 1111.45, 1125.92
1, 1, 12.84, 0.26, 0.53, 8.98, -0.00, 4.07, 0.48, -1.29, -3.21, 0.13, -2.70, -6.720.45, 1107.04, 1119.57, 1111.52, 1125.87
1, 1, 12.84, -1.25, 0.31, 9.59, -0.16, -0.25, 0.32, -1.28, -3.24, 0.13, -2.68, -6.790.46, 1106.98, 1119.66, 1111.43, 1125.93
1, 1, 12.85, 0.15, 0.11, 8.77, 0.02, 5.14, -0.72, -1.28, -3.23, 0.13, -2.67, -6.770.46, 1107.02, 1119.63, 1111.45, 1125.90
1, 1, 12.85, -0.75, -0.06, 9.26, 0.50, -5.41, 0.01, -1.27, -3.23, 0.13, -2.67, -6.770.46, 1107.02, 1119.64, 1111.44, 1125.90
1, 1, 12.85, -2.86, -0.11, 11.36, 0.47, -11.64, 0.61, -1.28, -3.22, 0.13, -2.67, -6.750.45, 1107.03, 1119.63, 1111.47, 1125.87
1, 1, 12.86, -0.18, 0.25, 9.28, -0.42, 10.79, -0.02, -1.28, -3.21, 0.13, -2.69, -6.730.45, 1107.04, 1119.59, 1111.50, 1125.87
1, 1, 12.86, 1.19, 0.02, 7.99, 0.12, 9.78, -0.29, -1.28, -3.21, 0.13, -2.68, -6.730.46, 1107.05, 1119.60, 1111.49, 1125.86
1, 1, 12.86, -1.64, 0.46, 10.75, 0.27, -13.64, 0.70, -1.29, -3.23, 0.13, -2.70, -6.760.45, 1106.99, 1119.61, 1111.48, 1125.91
1, 1, 12.87, -1.76, 0.31, 10.75, -0.19, -3.61, -0.31, -1.28, -3.22, 0.13, -2.69, -6.740.46, 1107.03, 1119.59, 1111.50, 1125.88
1, 1, 12.87, 0.00, -0.01, 9.00, 0.27, 7.15, -0.97, -1.28, -3.21, 0.13, -2.68, -6.720.46, 1107.07, 1119.58, 1111.49, 1125.86
1, 1, 12.88, -0.13, -0.13, 9.62, -0.33, 0.83, -0.32, -1.27, -3.21, 0.13, -2.67, -6.730.47, 1107.07, 1119.60, 1111.47, 1125.87
1, 1, 12.88, -0.82, 0.46, 9.88, 0.10, -2.70, -0.23, -1.29, -3.22, 0.14, -2.70, -6.740.48, 1107.04, 1119.57, 1111.48, 1125.92
1, 1, 12.89, -0.55, 0.16, 9.61, -0.05, 0.91, -0.00, -1.28, -3.22, 0.14, -2.68, -6.740.47, 1107.05, 1119.58, 1111.47, 1125.89
1, 1, 12.89, -1.29, -0.08, 10.16, 0.42, -4.92, 0.35, -1.28, -3.21, 0.13, -2.67, -6.730.47, 1107.06, 1119.59, 1111.48, 1125.87
1, 1, 12.89, -0.90, 0.03, 9.86, -0.33, 0.62, -0.00, -1.28, -3.21, 0.13, -2.68, -6.720.47, 1107.07, 1119.57, 1111.49, 1125.86
1, 1, 12.90, 0.18, 0.11, 9.11, -0.39, 5.21, -0.28, -1.28, -3.20, 0.14, -2.68, -6.710.47, 1107.08, 1119.56, 1111.50, 1125.86
1, 1, 12.90, -1.37, 0.43, 10.40, 0.07, -8.31, 0.27, -1.29, -3.20, 0.14, -2.69, -6.710.47, 1107.07, 1119.55, 1111.51, 1125.88
1, 1, 12.90, -0.82, 0.39, 10.04, -0.78, 5.24, -0.31, -1.28, -3.21, 0.14, -2.68, -6.730.48, 1107.06, 1119.57, 1111.48, 1125.89
1, 1, 12.91, 0.96, 0.39, 8.61, -0.08, 8.82, -1.07, -1.28, -3.21, 0.14, -2.69, -6.710.48, 1107.08, 1119.54, 1111.49, 1125.88
1, 1, 12.91, -1.02, -0.18, 9.76, 0.68, -9.29, 0.33, -1.27, -3.22, 0.14, -2.66, -6.740.48, 1107.08, 1119.60, 1111.44, 1125.88
1, 1, 12.92, -1.63, 0.69, 10.93, -0.34, -3.79, -0.08, -1.29, -3.21, 0.14, -2.70, -6.730.49, 1106.07, 1118.54, 1110.48, 1124.92
1, 1, 12.92, -0.24, -0.37, 8.85, 0.59, 8.37, -0.43, -1.27, -3.22, 0.14, -2.65, -6.740.49, 1106.10, 1118.60, 1110.42, 1124.88
1, 1, 12.93, 0.99, 0.64, 8.49, -0.71, 5.61, -0.52, -1.29, -3.21, 0.14, -2.70, -6.720.49, 1106.07, 1118.52, 1110.49, 1124.91
1, 1, 12.93, -2.01, -0.46, 11.40, 1.14, -16.57, -0.00, -1.27, -3.21, 0.14, -2.66, -6.720.49, 1106.11, 1118.57, 1110.45, 1124.87
1, 1, 12.93, -1.80, 0.48, 9.93, -0.36, 3.87, 0.07, -1.29, -3.22, 0.14, -2.70, -6.750.50, 1106.05, 1118.55, 1110.44, 1124.95
1, 1, 12.94, 1.83, -0.27, 8.15, 0.30, 13.20, -1.18, -1.27, -3.19, 0.15, -2.66, -6.670.52, 1106.18, 1118.49, 1110.47, 1124.85
1, 1, 12.94, -2.36, 0.02, 10.81, 0.56, -17.72, 0.58, -1.28, -3.21, 0.14, -2.68, -6.730.50, 1106.09, 1118.55, 1110.44, 1124.92
1, 1, 12.94, -1.63, 0.33, 10.60, -0.82, 2.21, 0.19, -1.28, -3.21, 0.14, -2.69, -6.720.51, 1106.09, 1118.53, 1110.46, 1124.92
1, 1, 12.95, 0.95, -0.25, 8.87, 0.16, 9.63, -0.37, -1.27, -3.19, 0.15, -2.66, -6.680.51, 1106.17, 1118.51, 1110.47, 1124.85
1, 1, 12.95, -0.75, 0.89, 8.99, -1.03, -1.79, 0.77, -1.30, -3.22, 0.14, -2.71, -6.750.50, 1106.04, 1118.54, 1110.46, 1124.97
1, 1, 12.96, -0.21, -0.21, 9.46, 0.73, 2.63, -0.64, -1.27, -3.22, 0.14, -2.66, -6.750.50, 1106.10, 1118.58, 1110.41, 1124.91
1, 1, 12.96, -1.17, 0.34, 9.69, -0.62, -6.57, 0.21, -1.28, -3.22, 0.15, -2.68, -6.740.51, 1106.08, 1118.55, 1110.44, 1124.93
1, 1, 12.97, -1.98, -0.07, 10.84, 0.65, -6.77, 0.76, -1.27, -3.20, 0.14, -2.67, -6.710.49, 1106.11, 1118.55, 1110.47, 1124.87
1, 1, 12.97, -0.72, 0.46, 9.03, -0.19, 9.20, 0.27, -1.29, -3.22, 0.14, -2.70, -6.740.49, 1106.06, 1118.55, 1110.46, 1124.93
1, 1, 12.97, 1.36, -0.04, 8.13, -0.49, 8.65, -0.60, -1.27, -3.20, 0.14, -2.67, -6.690.50, 1106.14, 1118.53, 1110.47, 1124.86
1, 1, 12.98, -2.19, -0.17, 10.81, 1.05, -13.70, -0.17, -1.27, -3.23, 0.14, -2.67, -6.750.50, 1106.07, 1118.59, 1110.42, 1124.92
1, 1, 12.98, -1.07, 0.29, 10.24, -0.65, 2.59, -0.46, -1.28, -3.21, 0.15, -2.68, -6.730.51, 1106.09, 1118.54, 1110.45, 1124.92
1, 1, 12.98, 0.43, -0.20, 8.74, 1.47, 6.77, -0.94, -1.28, -3.21, 0.15, -2.67, -6.710.52, 1106.13, 1118.52, 1110.44, 1124.90
1, 1, 12.99, -0.95, 0.08, 9.75, -0.92, -7.96, -0.46, -1.28, -3.21, 0.15, -2.68, -6.720.52, 1106.13, 1118.51, 1110.44, 1124.92
1, 1, 12.99, -1.49, 0.13, 11.70, 1.14, -9.63, 0.44, -1.28, -3.18, 0.15, -2.69, -6.650.52, 1106.18, 1118.44, 1110.52, 1124.86
1, 1, 13.00, -1.02, 0.40, 9.76, -0.77, 6.31, 0.48, -1.29, -3.20, 0.15, -2.70, -6.690.51, 1107.12, 1119.48, 1111.49, 1125.91
1, 1, 13.00, 1.56, 0.75, 7.58, -0.13, 12.88, -0.06, -1.30, -3.18, 0.14, -2.72, -6.650.50, 1107.12, 1119.43, 1111.57, 1125.88
1, 1, 13.01, -1.10, 0.11, 10.64, 0.15, -11.81, 1.13, -1.28, -3.20, 0.14, -2.68, -6.700.50, 1107.11, 1119.52, 1111.48, 1125.88
1, 1, 13.01, -2.86, 0.66, 10.71, -0.54, -4.51, 0.03, -1.29, -3.22, 0.15, -2.70, -6.740.51, 1107.07, 1119.53, 1111.46, 1125.95
1, 1, 13.01, 1.93, 0.41, 7.41, -0.89, 21.99, -1.61, -1.29, -3.19, 0.15, -2.69, -6.680.51, 1107.14, 1119.48, 1111.51, 1125.88
1, 1, 13.02, -0.37, 0.08, 9.27, -0.00, -8.57, -0.22, -1.28, -3.22, 0.15, -2.67, -6.750.52, 1106.11, 1118.55, 1110.40, 1124.94
1, 1, 13.02, -2.40, -0.05, 11.63, 0.16, -13.08, -0.14, -1.27, -3.21, 0.15, -2.67, -6.710.52, 1106.14, 1118.53, 1110.43, 1124.90
1, 1, 13.02, 0.72, -0.22, 9.13, -0.95, 14.63, -0.90, -1.26, -3.20, 0.15, -2.65, -6.700.54, 1106.19, 1118.51, 1110.41, 1124.89
1, 1, 13.03, -0.21, 0.06, 9.76, 0.53, -6.25, 0.48, -1.27, -3.20, 0.15, -2.67, -6.700.53, 1106.17, 1118.50, 1110.44, 1124.90
1, 1, 13.03, -2.16, 0.42, 11.30, -0.34, -7.37, 1.06, -1.28, -3.21, 0.15, -2.68, -6.720.52, 1106.13, 1118.52, 1110.44, 1124.92
1, 1, 13.04, 0.04, 0.35, 8.99, -0.17, 13.81, -0.48, -1.28, -3.22, 0.15, -2.68, -6.740.52, 1107.11, 1119.54, 1111.42, 1125.94
