test_number,stageinflight,time(s),ax(ms2),ay(ms2),az(ms2),gx(deg/s),gy(deg/s),gz(deg/s),pitch_error(deg),roll_error(deg),yaw_error(deg),pitch_output,p_pitch_output,i_pitch_output,d_pitch_output,roll_output,p_roll_output,i_roll_output,d_roll_output,yaw_output,m0_output(pwm),m1_output(pwm),m2_output(pwm),m3_output(pwm)
2, 1, 11.42, -0.80, 0.38, 9.63, -0.05, 0.04, 0.20, -3.02, -2.91, 0.17, -4.29, -4.22,-0.07, -0.00, -4.21, -4.07,-0.14, -0.00, 0.59, 1000.00, 1005.33, 1005.48, 1015.09
2, 1, 11.43, -0.82, 0.42, 9.66, -0.07, 0.12, -0.12, -3.02, -2.91, 0.17, -4.28, -4.22,-0.07, 0.00, -4.20, -4.07,-0.14, 0.01, 0.59, 1000.00, 1005.32, 1005.49, 1015.07
2, 1, 11.43, -0.91, 0.38, 9.68, -0.13, 0.15, -0.02, -3.02, -2.92, 0.17, -4.31, -4.22,-0.07, -0.02, -4.18, -4.07,-0.14, 0.04, 0.59, 1000.00, 1005.28, 1005.53, 1015.08
2, 1, 11.44, -0.84, 0.44, 9.73, -0.19, -0.02, -0.14, -3.02, -2.92, 0.17, -4.29, -4.22,-0.07, -0.00, -4.23, -4.07,-0.14, -0.02, 0.60, 1000.00, 1005.35, 1005.46, 1015.12
2, 1, 11.44, -0.84, 0.40, 9.64, 0.21, 0.09, 0.07, -3.02, -2.92, 0.17, -4.28, -4.22,-0.07, 0.01, -4.20, -4.07,-0.14, 0.00, 0.60, 1000.00, 1005.33, 1005.48, 1015.08
2, 1, 11.44, -0.85, 0.43, 9.58, -0.03, -0.03, -0.09, -3.02, -2.92, 0.17, -4.28, -4.22,-0.07, 0.00, -4.21, -4.07,-0.14, 0.00, 0.60, 1000.00, 1005.33, 1005.47, 1015.10
2, 1, 11.45, -0.82, 0.42, 9.58, 0.07, -0.06, -0.09, -3.02, -2.92, 0.17, -4.29, -4.22,-0.07, 0.00, -4.23, -4.07,-0.14, -0.01, 0.60, 1000.00, 1005.34, 1005.46, 1015.11
2, 1, 11.45, -0.81, 0.34, 9.64, -0.10, -0.00, 0.04, -3.02, -2.92, 0.17, -4.32, -4.21,-0.07, -0.03, -4.22, -4.07,-0.14, -0.00, 0.60, 1000.00, 1006.30, 1006.50, 1016.13
2, 1, 11.46, -0.88, 0.43, 9.67, -0.07, -0.02, -0.08, -3.02, -2.92, 0.17, -4.28, -4.22,-0.08, 0.01, -4.20, -4.07,-0.15, 0.01, 0.60, 1000.00, 1006.33, 1006.47, 1016.08
2, 1, 11.46, -0.78, 0.41, 9.68, 0.07, -0.14, -0.00, -3.02, -2.91, 0.17, -4.29, -4.22,-0.08, 0.00, -4.25, -4.07,-0.15, -0.04, 0.60, 1000.00, 1006.36, 1006.44, 1016.14
2, 1, 11.46, -0.84, 0.38, 9.65, 0.07, 0.03, -0.06, -3.02, -2.91, 0.17, -4.29, -4.22,-0.08, -0.00, -4.20, -4.07,-0.15, 0.02, 0.60, 1000.00, 1006.30, 1006.49, 1016.09
2, 1, 11.47, -0.85, 0.38, 9.60, -0.03, 0.10, -0.09, -3.02, -2.92, 0.17, -4.30, -4.22,-0.08, -0.00, -4.21, -4.07,-0.15, 0.01, 0.60, 1000.00, 1006.31, 1006.49, 1016.11
2, 1, 11.47, -0.86, 0.41, 9.72, -0.11, 0.01, 0.11, -3.02, -2.92, 0.17, -4.30, -4.22,-0.08, -0.00, -4.22, -4.07,-0.15, 0.00, 0.60, 1000.00, 1005.32, 1005.48, 1015.12
2, 1, 11.48, -0.87, 0.38, 9.66, -0.08, 0.15, 0.01, -3.02, -2.92, 0.17, -4.31, -4.21,-0.08, -0.01, -4.21, -4.07,-0.15, 0.02, 0.60, 1000.00, 1005.30, 1005.50, 1015.12
2, 1, 11.48, -0.86, 0.41, 9.67, -0.05, 0.13, -0.08, -3.02, -2.92, 0.17, -4.29, -4.21,-0.08, 0.00, -4.22, -4.07,-0.15, 0.00, 0.60, 1000.00, 1005.32, 1005.47, 1015.11
2, 1, 11.48, -0.84, 0.39, 9.60, 0.01, 0.01, 0.09, -3.02, -2.92, 0.17, -4.30, -4.21,-0.08, -0.00, -4.23, -4.07,-0.15, -0.00, 0.60, 1000.00, 1005.33, 1005.47, 1015.13
2, 1, 11.49, -0.78, 0.46, 9.58, 0.03, 0.06, 0.01, -3.02, -2.92, 0.17, -4.28, -4.22,-0.08, 0.02, -4.23, -4.07,-0.15, -0.00, 0.60, 1000.00, 1005.35, 1005.44, 1015.11
2, 1, 11.49, -0.83, 0.43, 9.64, -0.00, -0.08, 0.04, -3.02, -2.92, 0.17, -4.31, -4.22,-0.08, -0.00, -4.22, -4.07,-0.16, 0.00, 0.60, 1000.00, 1005.32, 1005.48, 1015.13
2, 1, 11.50, -0.88, 0.40, 9.65, 0.10, 0.09, 0.15, -3.02, -2.92, 0.17, -4.30, -4.22,-0.09, -0.00, -4.21, -4.07,-0.16, 0.02, 0.60, 1000.00, 1005.31, 1005.50, 1015.11
2, 1, 11.50, -0.84, 0.41, 9.68, 0.13, -0.05, 0.03, -3.02, -2.92, 0.17, -4.29, -4.22,-0.09, 0.01, -4.24, -4.07,-0.16, -0.01, 0.60, 1000.00, 1005.36, 1005.45, 1015.13
2, 1, 11.50, -0.79, 0.43, 9.66, -0.11, 0.06, 0.07, -3.02, -2.92, 0.17, -4.31, -4.22,-0.09, -0.00, -4.24, -4.07,-0.16, -0.00, 0.60, 1000.00, 1005.33, 1005.48, 1015.14
2, 1, 11.51, -0.87, 0.40, 9.64, 0.09, -0.20, -0.06, -3.02, -2.92, 0.17, -4.31, -4.22,-0.09, -0.00, -4.23, -4.07,-0.16, 0.00, 0.60, 1000.00, 1005.32, 1005.48, 1015.13
2, 1, 11.51, -0.84, 0.44, 9.56, -0.08, -0.03, 0.06, -3.02, -2.92, 0.17, -4.30, -4.22,-0.09, 0.00, -4.24, -4.07,-0.16, -0.00, 0.60, 1000.00, 1006.34, 1006.46, 1016.14
2, 1, 11.52, -0.85, 0.39, 9.67, -0.11, -0.28, -0.08, -3.02, -2.91, 0.17, -4.33, -4.21,-0.09, -0.02, -4.25, -4.07,-0.16, -0.02, 0.60, 1000.00, 1006.33, 1006.48, 1016.18
2, 1, 11.52, -0.86, 0.40, 9.59, 0.04, 0.10, -0.02, -3.02, -2.92, 0.17, -4.30, -4.22,-0.09, 0.00, -4.22, -4.07,-0.16, 0.01, 0.60, 1000.00, 1006.32, 1006.48, 1016.12
2, 1, 11.52, -0.84, 0.40, 9.62, 0.03, 0.04, -0.03, -3.02, -2.92, 0.17, -4.31, -4.22,-0.09, 0.00, -4.23, -4.07,-0.16, -0.00, 0.60, 1000.00, 1006.33, 1006.47, 1016.14
2, 1, 11.53, -0.85, 0.41, 9.60, -0.07, -0.05, -0.00, -3.02, -2.92, 0.17, -4.31, -4.22,-0.09, -0.00, -4.24, -4.07,-0.16, -0.00, 0.60, 1000.00, 1006.33, 1006.48, 1016.15
2, 1, 11.53, -0.86, 0.43, 9.64, -0.05, 0.09, 0.11, -3.02, -2.92, 0.17, -4.31, -4.22,-0.10, 0.00, -4.23, -4.07,-0.17, 0.00, 0.60, 1000.00, 1005.32, 1005.49, 1015.13
2, 1, 11.54, -0.84, 0.41, 9.70, -0.02, 0.10, 0.01, -3.02, -2.92, 0.17, -4.32, -4.21,-0.10, -0.00, -4.23, -4.07,-0.17, 0.00, 0.60, 1000.00, 1005.32, 1005.49, 1015.15
2, 1, 11.54, -0.86, 0.40, 9.62, -0.10, 0.07, -0.12, -3.02, -2.92, 0.17, -4.32, -4.21,-0.10, -0.01, -4.23, -4.07,-0.17, 0.01, 0.60, 1000.00, 1005.31, 1005.50, 1015.15
2, 1, 11.54, -0.85, 0.39, 9.66, -0.14, 0.15, 0.06, -3.02, -2.92, 0.17, -4.33, -4.21,-0.10, -0.01, -4.23, -4.07,-0.17, 0.00, 0.60, 1000.00, 1005.31, 1005.50, 1015.16
2, 1, 11.55, -0.84, 0.45, 9.60, 0.07, 0.10, 0.09, -3.02, -2.92, 0.17, -4.29, -4.21,-0.10, 0.02, -4.23, -4.07,-0.17, 0.00, 0.60, 1000.00, 1005.35, 1005.46, 1015.12
2, 1, 11.55, -0.85, 0.40, 9.67, -0.10, 0.03, -0.09, -3.02, -2.92, 0.17, -4.34, -4.21,-0.10, -0.02, -4.24, -4.07,-0.17, 0.00, 0.60, 1000.00, 1006.31, 1006.50, 1016.18
2, 1, 11.56, -0.83, 0.42, 9.59, 0.09, 0.06, 0.01, -3.02, -2.92, 0.17, -4.30, -4.21,-0.10, 0.01, -4.24, -4.07,-0.17, 0.00, 0.60, 1000.00, 1006.34, 1006.46, 1016.14
2, 1, 11.56, -0.85, 0.40, 9.58, 0.01, 0.07, -0.03, -3.02, -2.92, 0.17, -4.32, -4.21,-0.10, -0.00, -4.24, -4.07,-0.17, 0.01, 0.60, 1000.00, 1006.32, 1006.48, 1016.15
2, 1, 11.56, -0.85, 0.45, 9.58, 0.09, 0.15, -0.14, -3.02, -2.92, 0.17, -4.30, -4.22,-0.10, 0.02, -4.24, -4.07,-0.17, 0.01, 0.60, 1000.00, 1006.34, 1006.46, 1016.14
2, 1, 11.57, -0.80, 0.47, 9.63, 0.03, 0.03, -0.06, -3.02, -2.92, 0.17, -4.32, -4.22,-0.10, 0.00, -4.26, -4.07,-0.17, -0.00, 0.60, 1000.00, 1006.34, 1006.46, 1016.17
2, 1, 11.57, -0.86, 0.38, 9.65, -0.02, -0.05, 0.01, -3.02, -2.92, 0.17, -4.34, -4.21,-0.11, -0.02, -4.24, -4.07,-0.18, 0.00, 0.60, 1000.00, 1005.30, 1005.50, 1015.19
2, 1, 11.58, -0.84, 0.45, 9.62, -0.02, -0.09, 0.03, -3.02, -2.92, 0.17, -4.31, -4.21,-0.11, 0.02, -4.26, -4.07,-0.18, -0.01, 0.60, 1000.00, 1005.36, 1005.44, 1015.17
2, 1, 11.58, -0.89, 0.35, 9.58, -0.07, -0.05, -0.03, -3.02, -2.92, 0.17, -4.35, -4.21,-0.11, -0.03, -4.24, -4.07,-0.18, 0.00, 0.60, 1000.00, 1005.29, 1005.51, 1015.19
2, 1, 11.58, -0.81, 0.39, 9.66, 0.12, -0.13, -0.18, -3.02, -2.92, 0.17, -4.30, -4.21,-0.11, 0.02, -4.28, -4.07,-0.18, -0.03, 0.60, 1000.00, 1005.37, 1005.42, 1015.19
2, 1, 11.59, -0.84, 0.48, 9.58, -0.02, -0.08, -0.03, -3.02, -2.92, 0.17, -4.30, -4.22,-0.11, 0.02, -4.25, -4.07,-0.18, 0.00, 0.60, 1000.00, 1005.34, 1005.45, 1015.16
2, 1, 11.59, -0.83, 0.38, 9.58, -0.05, -0.09, 0.09, -3.02, -2.92, 0.17, -4.35, -4.21,-0.11, -0.03, -4.26, -4.07,-0.18, -0.01, 0.60, 1000.00, 1005.31, 1005.49, 1015.22
2, 1, 11.60, -0.84, 0.39, 9.63, -0.07, 0.07, 0.14, -3.02, -2.92, 0.17, -4.33, -4.21,-0.11, -0.00, -4.25, -4.07,-0.18, 0.00, 0.60, 1000.00, 1005.31, 1005.48, 1015.18
2, 1, 11.60, -0.79, 0.37, 9.60, -0.11, 0.01, -0.03, -3.02, -2.92, 0.17, -4.34, -4.21,-0.11, -0.01, -4.26, -4.07,-0.18, -0.00, 0.60, 1000.00, 1005.32, 1005.47, 1015.20
2, 1, 11.60, -0.88, 0.37, 9.59, -0.11, -0.09, 0.03, -3.02, -2.92, 0.17, -4.34, -4.21,-0.11, -0.00, -4.24, -4.07,-0.18, 0.01, 0.60, 1000.00, 1005.31, 1005.49, 1015.18
2, 1, 11.61, -0.81, 0.34, 9.67, 0.04, -0.08, 0.09, -3.02, -2.92, 0.17, -4.33, -4.21,-0.12, -0.00, -4.28, -4.07,-0.18, -0.03, 0.60, 1000.00, 1005.35, 1005.45, 1015.22
2, 1, 11.61, -0.86, 0.40, 9.62, -0.03, -0.05, -0.05, -3.02, -2.92, 0.17, -4.32, -4.21,-0.12, 0.01, -4.25, -4.07,-0.19, 0.00, 0.60, 1000.00, 1006.33, 1006.47, 1016.17
2, 1, 11.62, -0.83, 0.44, 9.66, -0.03, -0.08, -0.03, -3.02, -2.92, 0.17, -4.32, -4.21,-0.12, 0.00, -4.27, -4.07,-0.19, -0.02, 0.60, 1000.00, 1006.35, 1006.45, 1016.20
2, 1, 11.62, -0.81, 0.44, 9.62, 0.09, -0.00, -0.03, -3.02, -2.92, 0.17, -4.32, -4.21,-0.12, 0.00, -4.26, -4.07,-0.19, -0.00, 0.60, 1000.00, 1006.34, 1006.46, 1016.19
2, 1, 11.63, -0.92, 0.40, 9.70, 0.01, 0.01, -0.09, -3.02, -2.92, 0.17, -4.34, -4.21,-0.12, -0.00, -4.24, -4.07,-0.19, 0.03, 0.60, 1000.00, 1006.29, 1006.50, 1016.18
2, 1, 11.63, -0.84, 0.45, 9.63, 0.03, -0.13, -0.00, -3.02, -2.91, 0.17, -4.32, -4.21,-0.12, 0.01, -4.29, -4.07,-0.19, -0.03, 0.60, 1000.00, 1006.37, 1006.42, 1016.22
2, 1, 11.64, -0.84, 0.38, 9.65, 0.07, 0.10, -0.11, -3.02, -2.92, 0.17, -4.34, -4.21,-0.12, -0.00, -4.25, -4.07,-0.19, 0.01, 0.61, 1000.00, 1006.30, 1006.49, 1016.20
2, 1, 11.64, -0.84, 0.36, 9.65, 0.09, -0.03, 0.01, -3.02, -2.92, 0.17, -4.33, -4.21,-0.12, 0.00, -4.27, -4.07,-0.19, -0.00, 0.61, 1000.00, 1006.33, 1006.46, 1016.20
2, 1, 11.65, -0.88, 0.42, 9.66, -0.17, 0.03, -0.03, -3.02, -2.92, 0.17, -4.34, -4.21,-0.12, 0.00, -4.25, -4.07,-0.19, 0.01, 0.61, 1000.00, 1006.31, 1006.48, 1016.19
2, 1, 11.65, -0.84, 0.43, 9.63, -0.08, -0.08, -0.12, -3.02, -2.91, 0.17, -4.34, -4.21,-0.12, -0.00, -4.28, -4.07,-0.19, -0.02, 0.61, 1000.00, 1006.33, 1006.45, 1016.23
2, 1, 11.65, -0.85, 0.33, 9.74, -0.08, -0.00, 0.04, -3.02, -2.91, 0.17, -4.37, -4.21,-0.13, -0.03, -4.27, -4.07,-0.19, -0.00, 0.61, 1000.00, 1006.29, 1006.50, 1016.24
2, 1, 11.66, -0.83, 0.40, 9.69, -0.10, 0.12, -0.14, -3.02, -2.92, 0.17, -4.33, -4.21,-0.13, 0.01, -4.26, -4.07,-0.20, 0.00, 0.61, 1000.00, 1006.32, 1006.46, 1016.20
2, 1, 11.66, -0.86, 0.41, 9.56, 0.12, -0.09, 0.09, -3.02, -2.92, 0.17, -4.33, -4.21,-0.13, 0.01, -4.27, -4.07,-0.20, 0.00, 0.61, 1000.00, 1006.33, 1006.45, 1016.20
2, 1, 11.67, -0.85, 0.40, 9.68, -0.02, -0.08, -0.06, -3.02, -2.91, 0.17, -4.35, -4.21,-0.13, -0.00, -4.28, -4.07,-0.20, -0.01, 0.61, 1000.00, 1006.32, 1006.46, 1016.24
2, 1, 11.67, -0.85, 0.43, 9.65, 0.01, -0.00, -0.11, -3.02, -2.91, 0.17, -4.33, -4.21,-0.13, 0.01, -4.27, -4.07,-0.20, 0.00, 0.61, 1000.00, 1005.32, 1005.45, 1015.21
2, 1, 11.67, -0.84, 0.44, 9.59, 0.07, -0.03, 0.03, -3.02, -2.91, 0.17, -4.34, -4.21,-0.13, 0.00, -4.27, -4.07,-0.20, -0.00, 0.61, 1000.00, 1005.33, 1005.45, 1015.22
2, 1, 11.68, -0.87, 0.41, 9.65, 0.03, -0.03, -0.02, -3.02, -2.91, 0.17, -4.35, -4.21,-0.13, -0.00, -4.27, -4.07,-0.20, 0.00, 0.61, 1000.00, 1005.31, 1005.47, 1015.23
2, 1, 11.68, -0.82, 0.45, 9.61, -0.00, -0.02, -0.09, -3.02, -2.91, 0.17, -4.34, -4.21,-0.13, 0.01, -4.28, -4.07,-0.20, -0.01, 0.61, 1000.00, 1005.33, 1005.44, 1015.23
2, 1, 11.69, -0.82, 0.37, 9.69, -0.08, -0.00, -0.14, -3.02, -2.91, 0.17, -4.37, -4.21,-0.13, -0.03, -4.27, -4.07,-0.20, -0.00, 0.61, 1000.00, 1005.29, 1005.48, 1015.26
2, 1, 11.69, -0.86, 0.43, 9.62, 0.07, -0.11, 0.07, -3.02, -2.91, 0.17, -4.33, -4.21,-0.14, 0.02, -4.27, -4.07,-0.20, 0.00, 0.61, 1000.00, 1005.33, 1005.44, 1015.21
2, 1, 11.69, -0.80, 0.38, 9.62, 0.07, 0.03, -0.05, -3.02, -2.91, 0.17, -4.36, -4.21,-0.14, -0.00, -4.29, -4.07,-0.20, -0.01, 0.61, 1000.00, 1005.32, 1005.46, 1015.25
2, 1, 11.70, -0.81, 0.38, 9.66, -0.03, -0.03, 0.12, -3.02, -2.91, 0.17, -4.35, -4.21,-0.14, -0.00, -4.27, -4.07,-0.21, -0.00, 0.61, 1000.00, 1005.31, 1005.47, 1015.24
2, 1, 11.70, -0.87, 0.42, 9.68, 0.07, 0.18, 0.01, -3.02, -2.91, 0.17, -4.33, -4.21,-0.14, 0.02, -4.25, -4.07,-0.21, 0.03, 0.61, 1000.00, 1005.30, 1005.47, 1015.19
2, 1, 11.71, -0.81, 0.43, 9.54, 0.06, -0.05, -0.02, -3.02, -2.91, 0.17, -4.35, -4.21,-0.14, 0.00, -4.29, -4.07,-0.21, -0.01, 0.61, 1000.00, 1005.33, 1005.44, 1015.25
2, 1, 11.71, -0.87, 0.44, 9.69, -0.14, 0.13, 0.04, -3.02, -2.92, 0.17, -4.36, -4.21,-0.14, -0.01, -4.26, -4.07,-0.21, 0.02, 0.61, 1000.00, 1006.28, 1006.49, 1016.23
2, 1, 11.71, -0.83, 0.40, 9.62, 0.04, 0.21, 0.09, -3.02, -2.92, 0.17, -4.36, -4.21,-0.14, -0.00, -4.27, -4.07,-0.21, 0.01, 0.61, 1000.00, 1006.30, 1006.48, 1016.24
2, 1, 11.72, -0.82, 0.37, 9.68, 0.01, -0.02, 0.06, -3.02, -2.92, 0.17, -4.36, -4.21,-0.14, -0.00, -4.29, -4.07,-0.21, -0.00, 0.61, 1000.00, 1006.31, 1006.47, 1016.26
2, 1, 11.72, -0.86, 0.39, 9.69, 0.04, -0.20, 0.12, -3.02, -2.92, 0.17, -4.35, -4.21,-0.14, 0.00, -4.29, -4.07,-0.21, -0.00, 0.61, 1000.00, 1006.33, 1006.45, 1016.25
2, 1, 11.73, -0.85, 0.37, 9.59, -0.10, 0.01, -0.06, -3.02, -2.92, 0.17, -4.37, -4.21,-0.14, -0.01, -4.28, -4.07,-0.21, -0.00, 0.61, 1000.00, 1006.31, 1006.47, 1016.26
2, 1, 11.73, -0.79, 0.39, 9.70, 0.04, 0.03, -0.09, -3.02, -2.91, 0.17, -4.35, -4.21,-0.15, 0.00, -4.30, -4.07,-0.21, -0.01, 0.61, 1000.00, 1005.34, 1005.44, 1015.26
2, 1, 11.73, -0.85, 0.40, 9.61, 0.04, -0.13, -0.05, -3.02, -2.91, 0.17, -4.35, -4.21,-0.15, 0.00, -4.28, -4.07,-0.22, 0.00, 0.61, 1000.00, 1005.32, 1005.46, 1015.24
2, 1, 11.74, -0.80, 0.40, 9.62, 0.03, -0.06, 0.01, -3.02, -2.91, 0.17, -4.36, -4.21,-0.15, 0.00, -4.30, -4.07,-0.22, -0.02, 0.61, 1000.00, 1005.33, 1005.45, 1015.27
2, 1, 11.74, -0.83, 0.47, 9.64, -0.03, 0.07, -0.12, -3.02, -2.91, 0.17, -4.35, -4.21,-0.15, 0.01, -4.27, -4.07,-0.22, 0.01, 0.61, 1000.00, 1005.31, 1005.46, 1015.24
2, 1, 11.75, -0.84, 0.44, 9.65, 0.07, 0.20, -0.12, -3.02, -2.92, 0.17, -4.37, -4.21,-0.15, -0.00, -4.27, -4.07,-0.22, 0.02, 0.61, 1000.00, 1005.29, 1005.48, 1015.25
2, 1, 11.75, -0.87, 0.37, 9.57, -0.03, -0.00, 0.01, -3.02, -2.92, 0.17, -4.38, -4.21,-0.15, -0.02, -4.28, -4.07,-0.22, 0.00, 0.61, 1000.00, 1005.28, 1005.49, 1015.28
2, 1, 11.75, -0.86, 0.38, 9.65, -0.05, -0.00, 0.06, -3.02, -2.92, 0.17, -4.37, -4.21,-0.15, -0.00, -4.29, -4.07,-0.22, -0.00, 0.61, 1000.00, 1005.31, 1005.46, 1015.28
2, 1, 11.76, -0.84, 0.42, 9.64, -0.03, -0.00, -0.06, -3.02, -2.92, 0.17, -4.36, -4.21,-0.15, 0.00, -4.30, -4.07,-0.22, -0.00, 0.62, 1000.00, 1005.32, 1005.45, 1015.27
2, 1, 11.76, -0.82, 0.39, 9.61, 0.04, -0.34, -0.02, -3.02, -2.91, 0.17, -4.37, -4.21,-0.15, -0.00, -4.32, -4.07,-0.22, -0.03, 0.62, 1000.00, 1005.33, 1005.43, 1015.31
2, 1, 11.77, -0.81, 0.38, 9.62, -0.03, -0.20, 0.04, -3.02, -2.91, 0.17, -4.37, -4.21,-0.16, -0.00, -4.31, -4.07,-0.22, -0.02, 0.61, 1000.00, 1005.32, 1005.45, 1015.30
2, 1, 11.77, -0.83, 0.40, 9.60, 0.12, -0.08, -0.14, -3.02, -2.91, 0.17, -4.36, -4.21,-0.16, 0.01, -4.29, -4.07,-0.22, -0.00, 0.62, 1000.00, 1005.32, 1005.45, 1015.26
2, 1, 11.77, -0.86, 0.37, 9.59, -0.00, -0.05, 0.12, -3.02, -2.91, 0.17, -4.38, -4.21,-0.16, -0.00, -4.29, -4.07,-0.23, 0.00, 0.61, 1000.00, 1005.30, 1005.47, 1015.28
2, 1, 11.78, -0.89, 0.34, 9.63, -0.03, -0.08, 0.07, -3.02, -2.91, 0.17, -4.38, -4.21,-0.16, -0.01, -4.29, -4.07,-0.23, -0.00, 0.61, 1000.00, 1005.30, 1005.47, 1015.29
2, 1, 11.78, -0.83, 0.35, 9.66, -0.03, 0.03, -0.06, -3.02, -2.91, 0.17, -4.37, -4.21,-0.16, -0.00, -4.31, -4.07,-0.23, -0.01, 0.61, 1000.00, 1005.32, 1005.45, 1015.29
2, 1, 11.79, -0.82, 0.39, 9.55, -0.00, 0.04, -0.11, -3.02, -2.91, 0.17, -4.36, -4.21,-0.16, 0.01, -4.29, -4.07,-0.23, 0.00, 0.62, 1000.00, 1005.31, 1005.45, 1015.27
2, 1, 11.79, -0.82, 0.42, 9.69, 0.04, 0.01, 0.07, -3.02, -2.91, 0.17, -4.37, -4.21,-0.16, 0.00, -4.30, -4.07,-0.23, -0.00, 0.62, 1000.00, 1005.32, 1005.45, 1015.28
2, 1, 11.79, -0.86, 0.44, 9.62, 0.06, 0.13, -0.03, -3.02, -2.91, 0.17, -4.37, -4.21,-0.16, 0.01, -4.28, -4.07,-0.23, 0.02, 0.62, 1000.00, 1005.29, 1005.47, 1015.26
2, 1, 11.80, -0.86, 0.45, 9.65, -0.07, 0.09, 0.07, -3.02, -2.91, 0.17, -4.38, -4.21,-0.16, -0.00, -4.29, -4.07,-0.23, 0.00, 0.62, 1000.00, 1005.30, 1005.47, 1015.29
2, 1, 11.80, -0.83, 0.38, 9.64, 0.01, -0.00, 0.09, -3.02, -2.91, 0.17, -4.39, -4.21,-0.16, -0.01, -4.31, -4.07,-0.23, -0.00, 0.61, 1000.00, 1005.30, 1005.47, 1015.31
2, 1, 11.81, -0.85, 0.45, 9.62, 0.04, -0.00, 0.11, -3.02, -2.91, 0.17, -4.36, -4.21,-0.17, 0.02, -4.30, -4.07,-0.23, 0.00, 0.61, 1000.00, 1005.32, 1005.45, 1015.27
2, 1, 11.81, -0.87, 0.42, 9.63, -0.07, -0.08, -0.02, -3.02, -2.91, 0.17, -4.39, -4.21,-0.17, -0.01, -4.30, -4.07,-0.23, -0.00, 0.61, 1000.00, 1006.30, 1006.48, 1016.31
2, 1, 11.81, -0.80, 0.41, 9.64, 0.12, 0.07, 0.09, -3.02, -2.91, 0.17, -4.38, -4.21,-0.17, 0.00, -4.31, -4.07,-0.24, -0.01, 0.61, 1000.00, 1006.33, 1006.45, 1016.30
2, 1, 11.82, -0.86, 0.42, 9.64, -0.11, 0.06, 0.07, -3.02, -2.91, 0.17, -4.39, -4.21,-0.17, -0.00, -4.29, -4.07,-0.24, 0.02, 0.61, 1000.00, 1006.29, 1006.49, 1016.29
2, 1, 11.82, -0.85, 0.46, 9.61, 0.07, -0.09, 0.04, -3.02, -2.91, 0.17, -4.37, -4.21,-0.17, 0.02, -4.32, -4.07,-0.24, -0.01, 0.61, 1000.00, 1006.34, 1006.44, 1016.29
2, 1, 11.83, -0.85, 0.38, 9.72, -0.05, 0.04, 0.04, -3.02, -2.91, 0.17, -4.41, -4.21,-0.17, -0.03, -4.30, -4.07,-0.24, 0.00, 0.61, 1000.00, 1006.28, 1006.50, 1016.32
2, 1, 11.83, -0.82, 0.34, 9.53, -0.02, -0.02, -0.09, -3.02, -2.91, 0.17, -4.40, -4.21,-0.17, -0.01, -4.31, -4.07,-0.24, -0.00, 0.61, 1000.00, 1005.30, 1005.47, 1015.32
2, 1, 11.83, -0.87, 0.38, 9.60, -0.07, 0.07, -0.17, -3.02, -2.91, 0.17, -4.38, -4.21,-0.17, 0.00, -4.29, -4.07,-0.24, 0.02, 0.61, 1000.00, 1005.30, 1005.47, 1015.29
2, 1, 11.84, -0.88, 0.42, 9.62, 0.03, -0.13, -0.06, -3.02, -2.91, 0.17, -4.38, -4.21,-0.17, 0.01, -4.32, -4.07,-0.24, -0.00, 0.61, 1000.00, 1005.33, 1005.44, 1015.31
2, 1, 11.84, -0.82, 0.42, 9.61, 0.03, -0.02, -0.14, -3.02, -2.91, 0.17, -4.39, -4.21,-0.18, 0.00, -4.33, -4.07,-0.24, -0.02, 0.62, 1000.00, 1005.32, 1005.45, 1015.33
2, 1, 11.85, -0.84, 0.40, 9.55, -0.05, 0.09, 0.09, -3.02, -2.91, 0.17, -4.40, -4.21,-0.18, -0.00, -4.30, -4.07,-0.24, 0.01, 0.62, 1000.00, 1005.28, 1005.49, 1015.31
2, 1, 11.85, -0.84, 0.42, 9.62, 0.06, 0.06, -0.02, -3.02, -2.91, 0.17, -4.38, -4.21,-0.18, 0.01, -4.31, -4.07,-0.24, 0.00, 0.62, 1000.00, 1005.31, 1005.45, 1015.31
2, 1, 11.85, -0.85, 0.45, 9.66, 0.06, -0.00, -0.03, -3.02, -2.91, 0.17, -4.38, -4.21,-0.18, 0.01, -4.31, -4.07,-0.25, 0.00, 0.62, 1000.00, 1005.31, 1005.45, 1015.31
2, 1, 11.86, -0.86, 0.40, 9.64, -0.05, -0.08, -0.09, -3.02, -2.91, 0.17, -4.41, -4.21,-0.18, -0.02, -4.32, -4.07,-0.25, -0.00, 0.62, 1000.00, 1005.29, 1005.47, 1015.34
2, 1, 11.86, -0.88, 0.43, 9.62, 0.07, 0.20, 0.11, -3.02, -2.91, 0.17, -4.38, -4.21,-0.18, 0.01, -4.30, -4.07,-0.25, 0.02, 0.62, 1000.00, 1005.30, 1005.47, 1015.29
2, 1, 11.87, -0.79, 0.37, 9.64, 0.10, -0.08, 0.04, -3.02, -2.91, 0.17, -4.40, -4.21,-0.18, -0.00, -4.35, -4.07,-0.25, -0.03, 0.61, 1000.00, 1005.33, 1005.44, 1015.36
2, 1, 11.87, -0.78, 0.40, 9.69, 0.03, -0.03, 0.06, -3.02, -2.91, 0.17, -4.39, -4.21,-0.18, 0.00, -4.32, -4.07,-0.25, -0.00, 0.61, 1000.00, 1006.32, 1006.45, 1016.33
2, 1, 11.87, -0.85, 0.37, 9.67, -0.10, 0.15, -0.09, -3.02, -2.91, 0.17, -4.41, -4.21,-0.18, -0.01, -4.29, -4.07,-0.25, 0.03, 0.62, 1000.00, 1006.26, 1006.51, 1016.32
2, 1, 11.88, -0.78, 0.39, 9.71, -0.05, -0.02, -0.08, -3.02, -2.91, 0.17, -4.40, -4.21,-0.18, -0.00, -4.34, -4.07,-0.25, -0.02, 0.62, 1000.00, 1006.32, 1006.44, 1016.36
2, 1, 11.88, -0.87, 0.40, 9.65, -0.02, -0.02, 0.01, -3.02, -2.91, 0.17, -4.40, -4.21,-0.19, 0.00, -4.30, -4.07,-0.25, 0.02, 0.62, 1000.00, 1006.29, 1006.48, 1016.32
2, 1, 11.89, -0.82, 0.45, 9.60, -0.05, -0.02, 0.01, -3.02, -2.91, 0.17, -4.39, -4.21,-0.19, 0.00, -4.33, -4.07,-0.25, -0.01, 0.62, 1000.00, 1006.32, 1006.44, 1016.34
2, 1, 11.89, -0.84, 0.42, 9.61, 0.16, -0.02, -0.02, -3.02, -2.91, 0.17, -4.40, -4.21,-0.19, 0.00, -4.32, -4.07,-0.25, 0.00, 0.62, 1000.00, 1005.31, 1005.46, 1015.33
2, 1, 11.89, -0.88, 0.42, 9.57, 0.04, 0.15, 0.06, -3.02, -2.92, 0.17, -4.40, -4.21,-0.19, 0.00, -4.30, -4.07,-0.26, 0.02, 0.62, 1000.00, 1005.28, 1005.48, 1015.32
2, 1, 11.90, -0.89, 0.38, 9.69, -0.02, 0.06, -0.02, -3.02, -2.92, 0.17, -4.42, -4.21,-0.19, -0.01, -4.32, -4.07,-0.26, 0.00, 0.62, 1000.00, 1005.29, 1005.48, 1015.36
2, 1, 11.90, -0.86, 0.38, 9.60, -0.05, -0.17, 0.03, -3.02, -2.91, 0.17, -4.41, -4.21,-0.19, -0.00, -4.35, -4.07,-0.26, -0.02, 0.62, 1000.00, 1005.32, 1005.44, 1015.37
2, 1, 11.91, -0.85, 0.45, 9.62, -0.03, -0.22, -0.11, -3.02, -2.91, 0.17, -4.39, -4.21,-0.19, 0.01, -4.35, -4.07,-0.26, -0.02, 0.62, 1000.00, 1005.34, 1005.43, 1015.36
2, 1, 11.91, -0.86, 0.39, 9.62, -0.03, 0.03, -0.02, -3.02, -2.91, 0.17, -4.43, -4.21,-0.19, -0.02, -4.32, -4.07,-0.26, 0.00, 0.62, 1000.00, 1005.28, 1005.48, 1015.37
2, 1, 11.92, -0.85, 0.38, 9.62, 0.18, -0.13, -0.08, -3.02, -2.91, 0.17, -4.40, -4.21,-0.19, 0.01, -4.34, -4.07,-0.26, -0.01, 0.62, 1000.00, 1005.33, 1005.44, 1015.35
2, 1, 11.92, -0.80, 0.47, 9.67, -0.07, -0.13, 0.03, -3.02, -2.91, 0.17, -4.40, -4.22,-0.20, 0.02, -4.35, -4.07,-0.26, -0.02, 0.62, 1000.00, 1005.34, 1005.43, 1015.37
2, 1, 11.92, -0.84, 0.42, 9.60, -0.10, -0.03, -0.12, -3.02, -2.91, 0.17, -4.43, -4.21,-0.20, -0.02, -4.32, -4.07,-0.26, 0.00, 0.62, 1000.00, 1005.27, 1005.49, 1015.37
2, 1, 11.93, -0.82, 0.38, 9.59, -0.05, -0.00, -0.02, -3.02, -2.91, 0.17, -4.42, -4.21,-0.20, -0.01, -4.33, -4.07,-0.26, -0.00, 0.62, 1000.00, 1005.29, 1005.47, 1015.38
2, 1, 11.93, -0.85, 0.40, 9.64, 0.07, -0.14, 0.03, -3.02, -2.91, 0.17, -4.40, -4.21,-0.20, 0.01, -4.34, -4.07,-0.26, -0.00, 0.62, 1000.00, 1005.32, 1005.44, 1015.36
2, 1, 11.94, -0.89, 0.33, 9.65, -0.05, 0.04, 0.04, -3.02, -2.91, 0.17, -4.43, -4.21,-0.20, -0.02, -4.32, -4.07,-0.27, 0.01, 0.62, 1000.00, 1005.27, 1005.49, 1015.37
2, 1, 11.94, -0.86, 0.40, 9.58, 0.03, -0.00, -0.14, -3.02, -2.91, 0.17, -4.39, -4.21,-0.20, 0.02, -4.34, -4.07,-0.27, -0.00, 0.62, 1000.00, 1005.32, 1005.43, 1015.36
2, 1, 11.94, -0.83, 0.43, 9.58, 0.04, -0.03, 0.01, -3.02, -2.91, 0.17, -4.41, -4.21,-0.20, 0.01, -4.34, -4.07,-0.27, -0.01, 0.62, 1000.00, 1005.32, 1005.44, 1015.37
2, 1, 11.95, -0.87, 0.39, 9.64, -0.00, 0.01, -0.05, -3.02, -2.91, 0.17, -4.43, -4.21,-0.20, -0.01, -4.33, -4.07,-0.27, 0.00, 0.62, 1000.00, 1005.28, 1005.48, 1015.38
2, 1, 11.95, -0.81, 0.46, 9.67, -0.14, 0.06, 0.04, -3.02, -2.91, 0.17, -4.41, -4.21,-0.20, 0.00, -4.35, -4.07,-0.27, -0.01, 0.62, 1000.00, 1005.31, 1005.45, 1015.38
2, 1, 11.96, -0.81, 0.43, 9.66, 0.06, 0.10, 0.04, -3.02, -2.91, 0.17, -4.42, -4.21,-0.20, -0.00, -4.33, -4.07,-0.27, 0.00, 0.62, 1000.00, 1005.29, 1005.47, 1015.37
2, 1, 11.96, -0.81, 0.38, 9.65, -0.07, -0.19, 0.06, -3.02, -2.91, 0.17, -4.44, -4.21,-0.21, -0.02, -4.35, -4.07,-0.27, -0.02, 0.62, 1000.00, 1005.29, 1005.46, 1015.41
2, 1, 11.96, -0.88, 0.39, 9.59, -0.00, 0.01, 0.06, -3.02, -2.91, 0.17, -4.42, -4.21,-0.21, 0.00, -4.32, -4.07,-0.27, 0.02, 0.62, 1000.00, 1005.28, 1005.48, 1015.35
2, 1, 11.97, -0.83, 0.42, 9.64, 0.06, 0.06, 0.04, -3.02, -2.91, 0.17, -4.41, -4.21,-0.21, 0.01, -4.35, -4.07,-0.27, -0.00, 0.62, 1000.00, 1005.32, 1005.44, 1015.38
2, 1, 11.97, -0.84, 0.39, 9.52, -0.00, 0.01, 0.09, -3.02, -2.91, 0.17, -4.43, -4.21,-0.21, -0.00, -4.34, -4.07,-0.28, 0.00, 0.62, 1000.00, 1006.29, 1006.47, 1016.38
2, 1, 11.98, -0.82, 0.38, 9.60, 0.01, -0.00, -0.15, -3.02, -2.91, 0.17, -4.42, -4.21,-0.21, -0.00, -4.35, -4.07,-0.28, -0.00, 0.62, 1000.00, 1006.30, 1006.45, 1016.40
2, 1, 11.98, -0.86, 0.41, 9.68, -0.03, 0.09, -0.09, -3.02, -2.91, 0.17, -4.42, -4.21,-0.21, 0.00, -4.33, -4.07,-0.28, 0.02, 0.62, 1000.00, 1006.28, 1006.47, 1016.37
2, 1, 11.98, -0.79, 0.49, 9.70, -0.05, 0.03, -0.03, -3.02, -2.91, 0.17, -4.41, -4.21,-0.21, 0.02, -4.36, -4.07,-0.28, -0.01, 0.62, 1000.00, 1006.32, 1006.43, 1016.39
2, 1, 11.99, -0.80, 0.40, 9.61, -0.00, 0.03, 0.03, -3.02, -2.91, 0.17, -4.45, -4.21,-0.21, -0.02, -4.34, -4.07,-0.28, 0.00, 0.62, 1000.00, 1006.27, 1006.49, 1016.41
2, 1, 11.99, -0.83, 0.43, 9.67, -0.05, -0.16, 0.06, -3.02, -2.91, 0.17, -4.42, -4.21,-0.21, 0.00, -4.35, -4.07,-0.28, -0.00, 0.62, 1000.00, 1006.31, 1006.45, 1016.40
2, 1, 12.00, -0.82, 0.44, 9.63, 0.04, -0.16, -0.03, -3.02, -2.91, 0.17, -4.42, -4.21,-0.22, 0.00, -4.36, -4.06,-0.28, -0.02, 0.62, 1000.00, 1006.32, 1006.44, 1016.41
2, 1, 12.00, -0.82, 0.42, 9.57, 0.10, -0.06, -0.12, -3.02, -2.91, 0.17, -4.42, -4.21,-0.22, 0.00, -4.35, -4.06,-0.28, -0.00, 0.62, 1000.00, 1006.30, 1006.45, 1016.40
2, 1, 12.00, -0.86, 0.38, 9.60, -0.11, 0.01, 0.20, -3.02, -2.91, 0.17, -4.45, -4.21,-0.22, -0.02, -4.34, -4.07,-0.28, 0.00, 0.62, 1000.00, 1006.27, 1006.49, 1016.41
2, 1, 12.01, -0.84, 0.33, 9.62, 0.01, -0.00, 0.01, -3.02, -2.91, 0.17, -4.44, -4.21,-0.22, -0.01, -4.35, -4.06,-0.28, -0.00, 0.62, 1000.00, 1006.29, 1006.47, 1016.42
2, 1, 12.01, -0.87, 0.40, 9.72, 0.03, -0.06, 0.07, -3.02, -2.91, 0.17, -4.42, -4.21,-0.22, 0.02, -4.35, -4.06,-0.29, 0.00, 0.62, 1000.00, 1006.31, 1006.45, 1016.39
2, 1, 12.02, -0.82, 0.40, 9.72, 0.03, 0.04, 0.09, -3.02, -2.91, 0.17, -4.43, -4.21,-0.22, 0.00, -4.36, -4.06,-0.29, -0.01, 0.62, 1000.00, 1006.31, 1006.45, 1016.41
2, 1, 12.02, -0.85, 0.42, 9.66, 0.16, -0.11, -0.03, -3.02, -2.91, 0.17, -4.42, -4.21,-0.22, 0.02, -4.35, -4.06,-0.29, 0.00, 0.62, 1000.00, 1006.31, 1006.45, 1016.39
2, 1, 12.02, -0.77, 0.44, 9.60, 0.03, -0.16, 0.09, -3.02, -2.91, 0.17, -4.43, -4.21,-0.22, 0.00, -4.38, -4.06,-0.29, -0.03, 0.62, 1000.00, 1006.34, 1006.43, 1016.43
2, 1, 12.03, -0.83, 0.42, 9.61, -0.13, 0.07, -0.05, -3.02, -2.91, 0.17, -4.45, -4.21,-0.22, -0.01, -4.33, -4.06,-0.29, 0.02, 0.62, 1000.00, 1006.26, 1006.50, 1016.40
2, 1, 12.03, -0.88, 0.42, 9.66, -0.00, -0.03, 0.01, -3.02, -2.91, 0.17, -4.44, -4.21,-0.22, -0.00, -4.35, -4.06,-0.29, 0.00, 0.62, 1000.00, 1006.29, 1006.48, 1016.40
2, 1, 12.04, -0.88, 0.39, 9.71, 0.09, 0.01, 0.04, -3.02, -2.91, 0.17, -4.44, -4.21,-0.23, -0.00, -4.35, -4.06,-0.29, 0.00, 0.62, 1000.00, 1006.30, 1006.47, 1016.41
2, 1, 12.04, -0.87, 0.38, 9.65, -0.08, 0.07, -0.08, -3.02, -2.91, 0.17, -4.45, -4.21,-0.23, -0.00, -4.35, -4.06,-0.29, 0.00, 0.62, 1000.00, 1006.29, 1006.48, 1016.42
2, 1, 12.04, -0.92, 0.41, 9.55, -0.13, 0.12, 0.01, -3.02, -2.91, 0.17, -4.44, -4.21,-0.23, -0.00, -4.33, -4.07,-0.29, 0.03, 0.62, 1000.00, 1006.27, 1006.49, 1016.40
2, 1, 12.05, -0.81, 0.41, 9.59, -0.08, -0.08, 0.11, -3.02, -2.91, 0.17, -4.45, -4.21,-0.23, -0.00, -4.39, -4.06,-0.29, -0.04, 0.62, 1000.00, 1006.33, 1006.44, 1016.46
2, 1, 12.05, -0.84, 0.44, 9.67, 0.12, -0.03, -0.02, -3.02, -2.91, 0.17, -4.43, -4.21,-0.23, 0.01, -4.36, -4.06,-0.30, 0.00, 0.62, 1000.00, 1006.31, 1006.45, 1016.40
2, 1, 12.06, -0.87, 0.45, 9.63, 0.10, -0.19, 0.06, -3.02, -2.91, 0.17, -4.43, -4.21,-0.23, 0.01, -4.37, -4.06,-0.30, -0.00, 0.62, 1000.00, 1006.32, 1006.45, 1016.42
2, 1, 12.06, -0.84, 0.38, 9.64, -0.05, -0.02, 0.04, -3.02, -2.91, 0.17, -4.47, -4.21,-0.23, -0.02, -4.37, -4.06,-0.30, -0.00, 0.62, 1000.00, 1006.29, 1006.48, 1016.45
2, 1, 12.06, -0.84, 0.34, 9.61, 0.03, -0.16, -0.00, -3.02, -2.91, 0.17, -4.45, -4.21,-0.23, -0.00, -4.37, -4.06,-0.30, -0.01, 0.62, 1000.00, 1006.30, 1006.47, 1016.44
2, 1, 12.07, -0.84, 0.43, 9.59, -0.10, -0.05, -0.06, -3.02, -2.91, 0.17, -4.43, -4.21,-0.23, 0.02, -4.37, -4.06,-0.30, -0.00, 0.62, 1000.00, 1006.32, 1006.45, 1016.42
2, 1, 12.07, -0.89, 0.44, 9.72, -0.02, 0.04, -0.06, -3.02, -2.91, 0.17, -4.45, -4.21,-0.24, -0.00, -4.35, -4.06,-0.30, 0.01, 0.62, 1000.00, 1006.28, 1006.48, 1016.42
2, 1, 12.08, -0.86, 0.37, 9.61, -0.00, 0.06, -0.08, -3.02, -2.91, 0.17, -4.47, -4.21,-0.24, -0.02, -4.36, -4.06,-0.30, 0.00, 0.62, 1000.00, 1006.28, 1006.48, 1016.45
2, 1, 12.08, -0.85, 0.34, 9.60, 0.01, 0.12, -0.00, -3.02, -2.91, 0.17, -4.46, -4.21,-0.24, -0.00, -4.36, -4.06,-0.30, 0.00, 0.62, 1000.00, 1006.28, 1006.48, 1016.43
2, 1, 12.08, -0.81, 0.39, 9.65, -0.08, -0.05, 0.09, -3.02, -2.91, 0.17, -4.44, -4.21,-0.24, 0.00, -4.38, -4.06,-0.30, -0.01, 0.62, 1000.00, 1006.32, 1006.45, 1016.44
2, 1, 12.09, -0.84, 0.38, 9.69, -0.00, -0.08, 0.11, -3.02, -2.91, 0.17, -4.46, -4.21,-0.24, -0.00, -4.37, -4.06,-0.30, -0.00, 0.62, 1000.00, 1006.30, 1006.47, 1016.44
2, 1, 12.09, -0.74, 0.44, 9.73, -0.11, -0.16, 0.07, -3.02, -2.91, 0.17, -4.45, -4.21,-0.24, 0.00, -4.40, -4.06,-0.31, -0.04, 0.62, 1000.00, 1005.34, 1005.43, 1015.47
2, 1, 12.10, -0.82, 0.38, 9.55, 0.15, 0.03, 0.01, -3.02, -2.91, 0.17, -4.45, -4.21,-0.24, 0.00, -4.34, -4.06,-0.31, 0.03, 0.62, 1000.00, 1005.27, 1005.50, 1015.41
2, 1, 12.10, -0.82, 0.37, 9.65, -0.00, 0.16, 0.24, -3.02, -2.91, 0.17, -4.46, -4.21,-0.24, -0.00, -4.36, -4.06,-0.31, 0.01, 0.61, 1000.00, 1005.29, 1005.49, 1015.43
2, 1, 12.10, -0.79, 0.43, 9.62, 0.06, 0.01, -0.03, -3.02, -2.91, 0.17, -4.44, -4.21,-0.24, 0.02, -4.38, -4.06,-0.31, -0.00, 0.61, 1000.00, 1005.32, 1005.45, 1015.43
2, 1, 12.11, -0.85, 0.32, 9.65, 0.06, -0.03, -0.06, -3.02, -2.91, 0.17, -4.48, -4.21,-0.24, -0.02, -4.36, -4.06,-0.31, 0.01, 0.61, 1000.00, 1005.27, 1005.50, 1015.45
2, 1, 12.11, -0.82, 0.47, 9.63, 0.01, -0.05, -0.00, -3.02, -2.91, 0.17, -4.42, -4.21,-0.25, 0.04, -4.38, -4.06,-0.31, -0.01, 0.61, 1000.00, 1005.34, 1005.43, 1015.42
2, 1, 12.12, -0.85, 0.36, 9.58, 0.09, -0.00, -0.03, -3.02, -2.91, 0.17, -4.48, -4.21,-0.25, -0.02, -4.36, -4.06,-0.31, 0.01, 0.61, 1000.00, 1005.27, 1005.50, 1015.46
2, 1, 12.12, -0.88, 0.40, 9.56, 0.07, 0.03, 0.07, -3.02, -2.91, 0.17, -4.45, -4.21,-0.25, 0.02, -4.37, -4.06,-0.31, 0.00, 0.61, 1000.00, 1005.31, 1005.47, 1015.43
2, 1, 12.12, -0.85, 0.43, 9.48, 0.01, -0.03, 0.01, -3.02, -2.91, 0.17, -4.45, -4.21,-0.25, 0.00, -4.38, -4.06,-0.31, -0.00, 0.61, 1000.00, 1005.32, 1005.46, 1015.45
2, 1, 12.13, -0.87, 0.40, 9.63, -0.03, -0.11, 0.01, -3.02, -2.91, 0.17, -4.48, -4.21,-0.25, -0.01, -4.39, -4.06,-0.31, -0.01, 0.61, 1000.00, 1005.30, 1005.47, 1015.48
2, 1, 12.14, -0.83, 0.41, 9.57, -0.11, -0.06, -0.12, -3.02, -2.91, 0.17, -4.47, -4.21,-0.25, -0.00, -4.39, -4.06,-0.32, -0.02, 0.61, 1000.00, 1005.31, 1005.46, 1015.48
2, 1, 12.14, -0.82, 0.40, 9.64, 0.03, -0.08, -0.08, -3.02, -2.91, 0.17, -4.47, -4.21,-0.25, 0.00, -4.39, -4.06,-0.32, -0.01, 0.62, 1000.00, 1005.31, 1005.46, 1015.47
2, 1, 12.15, -0.82, 0.42, 9.69, 0.06, 0.03, 0.06, -3.02, -2.91, 0.17, -4.46, -4.21,-0.25, 0.00, -4.38, -4.06,-0.32, 0.00, 0.62, 1000.00, 1005.30, 1005.47, 1015.45
2, 1, 12.15, -0.88, 0.40, 9.56, 0.10, -0.11, 0.03, -3.02, -2.91, 0.17, -4.47, -4.21,-0.25, 0.00, -4.37, -4.06,-0.32, 0.00, 0.62, 1000.00, 1005.29, 1005.48, 1015.45
2, 1, 12.15, -0.80, 0.34, 9.69, -0.07, -0.06, 0.01, -3.02, -2.91, 0.17, -4.49, -4.21,-0.26, -0.02, -4.41, -4.06,-0.32, -0.03, 0.62, 1000.00, 1005.30, 1005.47, 1015.51
2, 1, 12.16, -0.81, 0.40, 9.66, -0.02, -0.09, -0.02, -3.02, -2.91, 0.17, -4.46, -4.21,-0.26, 0.01, -4.38, -4.06,-0.32, -0.00, 0.62, 1000.00, 1005.31, 1005.46, 1015.46
2, 1, 12.16, -0.84, 0.33, 9.62, -0.08, -0.09, 0.06, -3.02, -2.91, 0.17, -4.49, -4.21,-0.26, -0.02, -4.38, -4.06,-0.32, 0.00, 0.61, 1000.00, 1005.27, 1005.50, 1015.49
2, 1, 12.17, -0.82, 0.36, 9.61, 0.03, 0.13, 0.14, -3.02, -2.91, 0.17, -4.46, -4.21,-0.26, 0.01, -4.37, -4.06,-0.32, 0.00, 0.61, 1000.00, 1005.30, 1005.47, 1015.45
2, 1, 12.17, -0.85, 0.44, 9.62, 0.07, 0.01, -0.25, -3.02, -2.91, 0.17, -4.45, -4.21,-0.26, 0.03, -4.38, -4.06,-0.32, 0.00, 0.62, 1000.00, 1006.31, 1006.45, 1016.44
2, 1, 12.18, -0.87, 0.43, 9.60, 0.07, -0.06, -0.03, -3.02, -2.91, 0.17, -4.47, -4.21,-0.26, 0.00, -4.38, -4.06,-0.32, -0.00, 0.62, 1000.00, 1006.29, 1006.47, 1016.47
2, 1, 12.18, -0.83, 0.47, 9.66, 0.04, 0.07, -0.12, -3.02, -2.91, 0.17, -4.47, -4.22,-0.26, 0.01, -4.39, -4.06,-0.33, -0.00, 0.62, 1000.00, 1006.30, 1006.46, 1016.47
2, 1, 12.18, -0.88, 0.38, 9.59, 0.06, -0.13, -0.03, -3.02, -2.91, 0.17, -4.49, -4.21,-0.26, -0.02, -4.38, -4.06,-0.33, 0.00, 0.62, 1000.00, 1006.27, 1006.49, 1016.49
2, 1, 12.19, -0.81, 0.40, 9.59, 0.12, 0.04, 0.04, -3.02, -2.91, 0.17, -4.47, -4.22,-0.26, 0.01, -4.40, -4.06,-0.33, -0.01, 0.62, 1000.00, 1006.32, 1006.45, 1016.48
2, 1, 12.19, -0.86, 0.39, 9.56, 0.04, 0.23, -0.11, -3.02, -2.91, 0.17, -4.48, -4.22,-0.26, 0.00, -4.36, -4.06,-0.33, 0.03, 0.62, 1001.78, 1009.26, 1009.50, 1019.46
2, 1, 12.19, -0.85, 0.45, 9.69, -0.08, 0.10, 0.01, -3.02, -2.91, 0.17, -4.47, -4.22,-0.27, 0.00, -4.39, -4.06,-0.33, 0.00, 0.62, 1001.76, 1009.29, 1009.47, 1019.48
2, 1, 12.20, -0.83, 0.36, 9.69, 0.09, 0.13, -0.06, -3.02, -2.91, 0.17, -4.50, -4.22,-0.27, -0.02, -4.39, -4.06,-0.33, 0.00, 0.62, 1001.74, 1009.27, 1009.49, 1019.51
2, 1, 12.20, -0.84, 0.42, 9.54, -0.14, -0.16, -0.12, -3.02, -2.91, 0.17, -4.48, -4.22,-0.27, 0.00, -4.40, -4.06,-0.33, -0.00, 0.62, 1001.74, 1009.30, 1009.46, 1019.50
2, 1, 12.21, -0.80, 0.43, 9.64, -0.05, 0.07, 0.03, -3.02, -2.91, 0.17, -4.49, -4.22,-0.27, -0.00, -4.40, -4.06,-0.33, -0.00, 0.62, 1001.74, 1009.29, 1009.47, 1019.51
2, 1, 12.21, -0.84, 0.43, 9.57, -0.07, 0.07, 0.04, -3.02, -2.91, 0.17, -4.49, -4.22,-0.27, -0.00, -4.38, -4.06,-0.33, 0.02, 0.62, 1001.75, 1009.27, 1009.49, 1019.49
2, 1, 12.22, -0.84, 0.39, 9.65, 0.01, 0.06, 0.07, -3.02, -2.91, 0.17, -4.50, -4.21,-0.27, -0.01, -4.39, -4.06,-0.34, 0.00, 0.62, 1001.73, 1009.27, 1009.48, 1019.51
2, 1, 12.22, -0.85, 0.45, 9.70, 0.06, 0.04, -0.00, -3.02, -2.91, 0.17, -4.47, -4.22,-0.27, 0.02, -4.39, -4.06,-0.34, 0.00, 0.62, 1001.76, 1009.30, 1009.46, 1019.48
2, 1, 12.22, -0.84, 0.39, 9.66, -0.08, -0.23, 0.11, -3.02, -2.91, 0.17, -4.51, -4.21,-0.27, -0.02, -4.42, -4.06,-0.34, -0.02, 0.62, 1001.69, 1009.29, 1009.47, 1019.55
2, 1, 12.23, -0.86, 0.34, 9.58, -0.03, -0.00, 0.03, -3.02, -2.91, 0.17, -4.50, -4.21,-0.27, -0.02, -4.39, -4.06,-0.34, 0.00, 0.62, 1001.73, 1009.27, 1009.49, 1019.51
2, 1, 12.23, -0.83, 0.46, 9.66, -0.08, -0.08, -0.05, -3.02, -2.91, 0.17, -4.47, -4.21,-0.28, 0.02, -4.42, -4.06,-0.34, -0.02, 0.62, 1002.74, 1010.33, 1010.43, 1020.50
2, 1, 12.23, -0.84, 0.39, 9.64, 0.22, -0.05, 0.01, -3.02, -2.91, 0.17, -4.49, -4.21,-0.28, 0.00, -4.40, -4.06,-0.34, -0.00, 0.62, 1002.73, 1010.29, 1010.47, 1020.51
2, 1, 12.24, -0.90, 0.36, 9.60, -0.05, 0.15, 0.03, -3.02, -2.91, 0.17, -4.50, -4.21,-0.28, -0.01, -4.37, -4.06,-0.34, 0.03, 0.62, 1002.74, 1010.25, 1010.51, 1020.50
2, 1, 12.24, -0.78, 0.39, 9.64, -0.03, 0.07, -0.00, -3.02, -2.91, 0.17, -4.49, -4.21,-0.28, 0.00, -4.43, -4.06,-0.34, -0.02, 0.62, 1002.70, 1010.32, 1010.45, 1020.53
2, 1, 12.25, -0.89, 0.38, 9.60, -0.02, -0.13, 0.01, -3.02, -2.91, 0.17, -4.50, -4.21,-0.28, -0.00, -4.39, -4.06,-0.34, 0.02, 0.62, 1002.74, 1010.27, 1010.49, 1020.50
2, 1, 12.25, -0.86, 0.37, 9.61, 0.07, -0.13, 0.01, -3.02, -2.91, 0.17, -4.49, -4.21,-0.28, 0.00, -4.42, -4.06,-0.34, -0.02, 0.62, 1049.71, 1057.31, 1057.45, 1067.53
2, 1, 12.26, -0.85, 0.40, 9.67, 0.04, -0.09, -0.00, -3.02, -2.91, 0.17, -4.49, -4.22,-0.28, 0.01, -4.41, -4.06,-0.35, -0.01, 0.62, 1049.72, 1057.31, 1057.45, 1067.52
2, 1, 12.26, -0.87, 0.39, 9.61, -0.00, 0.01, 0.04, -3.02, -2.91, 0.17, -4.50, -4.21,-0.28, -0.00, -4.40, -4.06,-0.35, 0.00, 0.62, 1049.72, 1057.28, 1057.48, 1067.52
2, 1, 12.26, -0.85, 0.36, 9.57, -0.07, 0.01, -0.05, -3.02, -2.91, 0.17, -4.51, -4.21,-0.28, -0.01, -4.41, -4.06,-0.35, -0.00, 0.62, 1049.70, 1057.28, 1057.48, 1067.54
2, 1, 12.27, -0.79, 0.42, 9.72, 0.03, -0.16, -0.03, -3.02, -2.91, 0.17, -4.48, -4.22,-0.28, 0.02, -4.44, -4.06,-0.35, -0.03, 0.62, 1049.70, 1057.33, 1057.43, 1067.54
2, 1, 12.27, -0.87, 0.41, 9.60, -0.02, -0.09, 0.21, -3.02, -2.91, 0.17, -4.50, -4.21,-0.29, -0.00, -4.39, -4.06,-0.35, 0.01, 0.62, 1055.72, 1063.27, 1063.49, 1073.51
2, 1, 12.27, -0.86, 0.45, 9.64, -0.03, 0.16, -0.17, -3.02, -2.91, 0.17, -4.50, -4.22,-0.29, 0.00, -4.40, -4.06,-0.35, 0.01, 0.62, 1055.72, 1063.28, 1063.48, 1073.51
2, 1, 12.28, -0.79, 0.43, 9.66, 0.16, 0.04, -0.02, -3.02, -2.91, 0.17, -4.50, -4.22,-0.29, 0.00, -4.42, -4.06,-0.35, -0.01, 0.62, 1055.70, 1063.31, 1063.45, 1073.54
2, 1, 12.28, -0.88, 0.44, 9.67, 0.06, -0.05, -0.15, -3.02, -2.91, 0.17, -4.50, -4.22,-0.29, 0.00, -4.39, -4.06,-0.35, 0.02, 0.62, 1055.73, 1063.27, 1063.48, 1073.51
2, 1, 12.29, -0.78, 0.44, 9.65, -0.03, -0.00, 0.23, -3.02, -2.91, 0.17, -4.51, -4.22,-0.29, -0.00, -4.43, -4.06,-0.35, -0.02, 0.62, 1055.68, 1063.30, 1063.46, 1073.56
2, 1, 12.29, -0.84, 0.42, 9.62, 0.12, -0.06, -0.15, -3.02, -2.91, 0.17, -4.50, -4.22,-0.29, 0.00, -4.40, -4.06,-0.35, 0.00, 0.62, 1069.72, 1077.28, 1077.48, 1087.53
2, 1, 12.30, -0.96, 0.40, 9.60, -0.13, 0.27, 0.03, -3.02, -2.91, 0.17, -4.52, -4.22,-0.29, -0.02, -4.36, -4.06,-0.36, 0.05, 0.62, 1069.74, 1077.22, 1077.54, 1087.51
2, 1, 12.30, -0.82, 0.37, 9.71, -0.02, -0.29, 0.23, -3.02, -2.91, 0.17, -4.52, -4.21,-0.29, -0.01, -4.47, -4.06,-0.36, -0.06, 0.62, 1069.62, 1077.34, 1077.43, 1087.61
2, 1, 12.30, -0.83, 0.30, 9.60, 0.01, -0.29, -0.11, -3.02, -2.90, 0.17, -4.52, -4.21,-0.29, -0.02, -4.43, -4.06,-0.36, -0.02, 0.62, 1069.66, 1077.29, 1077.47, 1087.58
2, 1, 12.31, -0.74, 0.45, 9.67, -0.19, 0.09, 0.24, -3.02, -2.90, 0.17, -4.49, -4.22,-0.30, 0.02, -4.43, -4.05,-0.36, -0.01, 0.62, 1069.70, 1077.32, 1077.45, 1087.53
2, 1, 12.31, -0.80, 0.44, 9.73, -0.02, -0.40, 0.12, -3.02, -2.90, 0.17, -4.52, -4.21,-0.30, -0.00, -4.43, -4.05,-0.36, -0.02, 0.61, 1073.67, 1081.30, 1081.47, 1091.56
2, 1, 12.31, -0.92, 0.44, 9.62, -0.07, -0.22, 0.30, -3.02, -2.90, 0.17, -4.52, -4.21,-0.30, -0.00, -4.40, -4.05,-0.36, 0.01, 0.61, 1073.69, 1081.28, 1081.50, 1091.53
2, 1, 12.32, -1.04, 0.64, 9.67, -0.13, -0.40, -0.43, -3.02, -2.90, 0.17, -4.48, -4.22,-0.30, 0.04, -4.42, -4.05,-0.36, -0.00, 0.62, 1073.72, 1081.32, 1081.44, 1091.52
2, 1, 12.32, -0.80, 0.29, 9.80, 0.09, -0.57, 0.09, -3.02, -2.90, 0.17, -4.59, -4.21,-0.30, -0.08, -4.52, -4.05,-0.36, -0.11, 0.61, 1073.51, 1081.31, 1081.46, 1091.72
2, 1, 12.33, -0.81, 0.28, 9.76, 0.12, 0.23, -0.76, -3.02, -2.90, 0.17, -4.51, -4.21,-0.30, 0.00, -4.39, -4.05,-0.36, 0.02, 0.63, 1073.73, 1081.26, 1081.49, 1091.52
2, 1, 12.33, -0.88, 0.39, 9.64, 0.06, 0.94, 0.14, -3.02, -2.90, 0.17, -4.48, -4.21,-0.30, 0.03, -4.32, -4.05,-0.36, 0.10, 0.62, 1075.82, 1083.21, 1083.54, 1093.43
2, 1, 12.34, -0.86, 0.23, 9.76, 0.09, -0.25, -0.22, -3.02, -2.90, 0.17, -4.55, -4.21,-0.30, -0.03, -4.44, -4.05,-0.37, -0.03, 0.63, 1075.63, 1083.27, 1083.48, 1093.62
2, 1, 12.34, -0.69, 0.40, 9.54, -0.05, 0.06, 0.33, -3.02, -2.90, 0.17, -4.48, -4.21,-0.30, 0.04, -4.45, -4.05,-0.37, -0.03, 0.62, 1075.69, 1083.35, 1083.41, 1093.55
2, 1, 12.34, -0.77, 0.25, 9.70, -0.08, 0.35, 0.38, -3.02, -2.90, 0.17, -4.56, -4.21,-0.31, -0.04, -4.37, -4.05,-0.37, 0.05, 0.62, 1075.68, 1083.20, 1083.57, 1093.55
2, 1, 12.35, -0.91, 0.39, 9.66, -0.14, -0.42, 0.26, -3.02, -2.90, 0.17, -4.50, -4.21,-0.31, 0.02, -4.42, -4.05,-0.37, 0.00, 0.61, 1075.70, 1083.31, 1083.46, 1093.53
2, 1, 12.35, -0.85, 0.55, 9.38, 0.24, 0.03, 0.21, -3.02, -2.90, 0.17, -4.46, -4.22,-0.31, 0.06, -4.43, -4.05,-0.37, -0.00, 0.61, 1074.72, 1082.36, 1082.42, 1092.50
2, 1, 12.35, -0.74, 0.26, 9.56, -0.00, 0.16, -0.06, -3.02, -2.90, 0.17, -4.60, -4.21,-0.31, -0.08, -4.44, -4.05,-0.37, -0.02, 0.61, 1074.58, 1082.23, 1082.55, 1092.65
2, 1, 12.36, -0.93, 0.41, 9.53, -0.08, -0.02, -0.52, -3.02, -2.90, 0.17, -4.49, -4.21,-0.31, 0.03, -4.38, -4.06,-0.37, 0.05, 0.62, 1074.74, 1082.27, 1082.49, 1092.49
2, 1, 12.36, -0.77, 0.43, 9.53, 0.06, 0.26, -0.22, -3.02, -2.90, 0.17, -4.52, -4.22,-0.31, 0.00, -4.44, -4.05,-0.37, -0.02, 0.62, 1074.66, 1082.30, 1082.45, 1092.58
2, 1, 12.37, -0.65, 0.34, 9.66, 0.39, 0.36, -0.98, -3.02, -2.90, 0.18, -4.52, -4.22,-0.31, 0.00, -4.43, -4.05,-0.37, -0.00, 0.64, 1074.69, 1082.28, 1082.45, 1092.58
2, 1, 12.37, -1.08, 0.62, 9.60, 0.10, -0.46, -0.29, -3.02, -2.91, 0.18, -4.45, -4.22,-0.31, 0.08, -4.36, -4.06,-0.37, 0.07, 0.64, 1074.82, 1082.27, 1082.45, 1092.46
2, 1, 12.38, -0.77, 0.44, 9.38, -0.08, -0.97, 0.46, -3.02, -2.90, 0.18, -4.58, -4.22,-0.31, -0.05, -4.58, -4.05,-0.38, -0.15, 0.63, 1074.48, 1082.36, 1082.37, 1092.79
2, 1, 12.38, -0.95, 0.48, 9.53, 0.15, 0.24, -0.12, -3.02, -2.90, 0.18, -4.51, -4.22,-0.31, 0.02, -4.37, -4.05,-0.38, 0.06, 0.64, 1074.75, 1082.22, 1082.51, 1092.52
2, 1, 12.38, -0.89, 0.65, 9.75, -0.49, 0.68, 0.53, -3.02, -2.90, 0.17, -4.54, -4.22,-0.32, -0.00, -4.40, -4.05,-0.38, 0.04, 0.63, 1074.70, 1082.23, 1082.51, 1092.56
2, 1, 12.39, -0.60, 0.39, 9.77, 0.10, -0.29, 0.11, -3.02, -2.90, 0.17, -4.59, -4.22,-0.32, -0.06, -4.52, -4.05,-0.38, -0.09, 0.63, 1074.51, 1082.31, 1082.44, 1092.74
2, 1, 12.39, -0.95, 0.49, 9.54, 0.06, -0.19, 0.38, -3.02, -2.90, 0.17, -4.50, -4.22,-0.32, 0.03, -4.36, -4.05,-0.38, 0.07, 0.62, 1074.76, 1082.23, 1082.52, 1092.48
2, 1, 12.40, -0.83, 0.37, 9.61, 0.16, 0.42, -0.25, -3.02, -2.90, 0.17, -4.55, -4.22,-0.32, -0.02, -4.43, -4.05,-0.38, 0.00, 0.62, 1074.64, 1082.25, 1082.50, 1092.61
2, 1, 12.40, -0.81, 0.28, 9.64, 0.18, 0.20, -0.73, -3.02, -2.90, 0.18, -4.54, -4.22,-0.32, -0.00, -4.43, -4.05,-0.38, 0.01, 0.63, 1074.67, 1082.25, 1082.48, 1092.60
2, 1, 12.40, -0.84, 0.34, 9.35, 0.24, 0.09, -0.46, -3.02, -2.90, 0.18, -4.50, -4.22,-0.32, 0.04, -4.42, -4.06,-0.38, 0.02, 0.64, 1074.72, 1082.27, 1082.44, 1092.56
2, 1, 12.41, -0.62, 0.50, 9.80, -0.23, -0.14, 0.59, -3.02, -2.90, 0.18, -4.53, -4.22,-0.32, 0.02, -4.51, -4.05,-0.38, -0.07, 0.63, 1074.60, 1082.35, 1082.38, 1092.67
2, 1, 12.41, -0.78, 0.33, 9.72, -0.17, -0.54, -0.46, -3.02, -2.90, 0.18, -4.59, -4.22,-0.32, -0.06, -4.44, -4.05,-0.38, -0.00, 0.64, 1074.60, 1082.21, 1082.52, 1092.67
2, 1, 12.41, -1.01, 0.46, 9.50, -0.11, 0.59, 0.58, -3.02, -2.91, 0.18, -4.51, -4.22,-0.32, 0.03, -4.33, -4.06,-0.39, 0.11, 0.63, 1074.78, 1082.19, 1082.55, 1092.48
2, 1, 12.42, -0.92, 0.15, 9.70, -0.37, 0.27, -0.29, -3.02, -2.91, 0.18, -4.65, -4.21,-0.33, -0.11, -4.45, -4.06,-0.39, -0.00, 0.64, 1074.54, 1082.17, 1082.56, 1092.73
2, 1, 12.42, -0.70, 0.69, 9.60, 0.22, -0.43, 0.18, -3.02, -2.90, 0.18, -4.39, -4.22,-0.33, 0.15, -4.53, -4.05,-0.39, -0.09, 0.63, 1074.71, 1082.50, 1082.23, 1092.56
2, 1, 12.43, -0.90, 0.05, 9.27, -0.22, 0.65, 0.61, -3.01, -2.91, 0.17, -4.71, -4.21,-0.33, -0.18, -4.34, -4.06,-0.39, 0.11, 0.62, 1074.57, 1082.00, 1082.75, 1092.67
2, 1, 12.43, -0.83, 0.70, 9.94, 0.32, -0.87, 0.01, -3.02, -2.90, 0.17, -4.37, -4.22,-0.33, 0.18, -4.55, -4.05,-0.39, -0.10, 0.63, 1074.71, 1082.56, 1082.19, 1092.54
2, 1, 12.44, -0.79, 0.72, 9.74, -0.16, -0.71, 0.07, -3.02, -2.90, 0.17, -4.56, -4.22,-0.33, -0.00, -4.50, -4.05,-0.39, -0.07, 0.62, 1074.56, 1082.32, 1082.43, 1092.69
2, 1, 12.44, -0.78, 0.05, 9.48, -0.23, 0.91, -0.83, -3.01, -2.90, 0.18, -4.72, -4.21,-0.33, -0.18, -4.37, -4.05,-0.39, 0.08, 0.63, 1074.55, 1082.01, 1082.72, 1092.72
2, 1, 12.44, -1.07, 0.80, 9.73, -0.08, -0.40, 0.18, -3.02, -2.90, 0.18, -4.37, -4.22,-0.33, 0.18, -4.42, -4.06,-0.39, 0.03, 0.64, 1074.84, 1082.41, 1082.32, 1092.43
2, 1, 12.45, -0.85, -0.16, 9.42, 0.29, -0.29, -0.37, -3.01, -2.90, 0.18, -4.75, -4.21,-0.33, -0.22, -4.52, -4.05,-0.39, -0.07, 0.64, 1074.37, 1082.13, 1082.60, 1092.91
2, 1, 12.45, -0.82, 0.62, 9.74, -0.19, 1.28, -0.52, -3.02, -2.91, 0.18, -4.37, -4.22,-0.33, 0.18, -4.36, -4.06,-0.39, 0.09, 0.65, 1073.92, 1081.34, 1081.37, 1091.38
2, 1, 12.45, -1.34, 0.22, 9.43, -0.02, 0.12, 0.47, -3.02, -2.91, 0.18, -4.64, -4.21,-0.33, -0.10, -4.32, -4.07,-0.40, 0.15, 0.64, 1073.68, 1081.03, 1081.69, 1091.60
2, 1, 12.46, -0.91, -0.06, 9.66, 0.32, -0.69, 0.18, -3.01, -2.90, 0.18, -4.59, -4.21,-0.34, -0.05, -4.62, -4.06,-0.40, -0.17, 0.63, 1073.42, 1081.40, 1081.33, 1091.85
2, 1, 12.46, -0.84, 0.57, 9.58, -0.34, 0.93, 0.41, -3.02, -2.91, 0.17, -4.42, -4.22,-0.34, 0.13, -4.40, -4.06,-0.40, 0.06, 0.63, 1073.81, 1081.34, 1081.40, 1091.45
2, 1, 12.47, -0.98, 0.14, 10.02, 0.36, -0.64, 0.61, -3.02, -2.91, 0.17, -4.63, -4.21,-0.34, -0.08, -4.49, -4.06,-0.40, -0.03, 0.62, 1073.51, 1081.24, 1081.52, 1091.73
2, 1, 12.47, -0.82, 0.43, 9.84, -0.45, -0.83, -0.25, -3.02, -2.90, 0.17, -4.52, -4.21,-0.34, 0.03, -4.55, -4.05,-0.40, -0.10, 0.63, 1073.55, 1081.41, 1081.34, 1091.70
2, 1, 12.48, -0.90, 0.36, 10.01, 0.41, 0.38, -0.29, -3.02, -2.90, 0.17, -4.54, -4.21,-0.34, 0.02, -4.41, -4.05,-0.40, 0.05, 0.63, 1073.68, 1081.24, 1081.50, 1091.58
2, 1, 12.48, -0.68, 0.15, 9.45, -0.22, 0.36, -0.80, -3.02, -2.90, 0.18, -4.62, -4.21,-0.34, -0.07, -4.47, -4.05,-0.40, -0.01, 0.64, 1073.56, 1081.21, 1081.51, 1091.73
2, 1, 12.48, -0.89, 0.21, 10.00, -0.14, 0.29, -0.17, -3.02, -2.91, 0.18, -4.55, -4.21,-0.34, 0.00, -4.40, -4.06,-0.40, 0.06, 0.64, 1073.69, 1081.20, 1081.51, 1091.59
2, 1, 12.49, -0.94, 0.17, 9.20, 0.13, 0.10, -0.17, -3.02, -2.91, 0.18, -4.55, -4.21,-0.34, 0.00, -4.42, -4.06,-0.40, 0.04, 0.65, 1073.68, 1081.23, 1081.48, 1091.62
2, 1, 12.49, -0.17, 0.39, 10.01, -0.05, 0.47, -0.02, -3.02, -2.90, 0.18, -4.51, -4.21,-0.34, 0.04, -4.62, -4.05,-0.41, -0.17, 0.65, 1074.51, 1082.46, 1082.25, 1092.78
2, 1, 12.49, -1.32, 0.10, 9.63, 0.32, -0.57, -0.25, -3.02, -2.91, 0.18, -4.60, -4.21,-0.35, -0.04, -4.23, -4.06,-0.41, 0.24, 0.65, 1074.82, 1081.99, 1082.72, 1092.48
2, 1, 12.50, -0.82, 0.70, 9.63, 0.13, -0.60, 1.34, -3.02, -2.90, 0.17, -4.41, -4.22,-0.35, 0.16, -4.63, -4.05,-0.41, -0.17, 0.63, 1074.59, 1082.59, 1082.14, 1092.67
2, 1, 12.50, -0.59, -0.11, 9.90, -0.14, 0.30, -1.25, -3.01, -2.90, 0.18, -4.77, -4.21,-0.35, -0.21, -4.49, -4.05,-0.41, -0.04, 0.65, 1074.38, 1082.08, 1082.63, 1092.91
2, 1, 12.51, -1.45, 0.64, 9.65, 0.01, -0.43, 0.66, -3.02, -2.91, 0.18, -4.38, -4.22,-0.35, 0.19, -4.29, -4.06,-0.41, 0.18, 0.64, 1074.97, 1082.27, 1082.44, 1092.32
2, 1, 12.51, -0.71, 0.16, 9.83, -0.39, -0.51, 0.15, -3.02, -2.90, 0.18, -4.71, -4.21,-0.35, -0.15, -4.68, -4.05,-0.41, -0.23, 0.64, 1073.24, 1081.33, 1081.39, 1092.03
2, 1, 12.52, -0.78, 0.18, 9.57, 0.53, -0.14, -1.54, -3.02, -2.90, 0.18, -4.51, -4.21,-0.35, 0.05, -4.45, -4.05,-0.41, 0.01, 0.66, 1073.70, 1081.28, 1081.41, 1091.62
2, 1, 12.52, -1.15, 0.51, 9.62, -0.55, 0.68, 0.36, -3.02, -2.91, 0.18, -4.53, -4.22,-0.35, 0.03, -4.32, -4.06,-0.41, 0.15, 0.66, 1073.80, 1081.14, 1081.55, 1091.51
2, 1, 12.52, -0.55, -0.11, 9.74, 1.00, -0.40, -0.55, -3.02, -2.90, 0.18, -4.63, -4.21,-0.35, -0.07, -4.64, -4.05,-0.41, -0.18, 0.66, 1073.38, 1081.35, 1081.33, 1091.94
2, 1, 12.53, -0.79, 0.23, 9.13, -0.54, 1.52, -0.51, -3.02, -2.91, 0.19, -4.52, -4.21,-0.35, 0.04, -4.27, -4.06,-0.41, 0.20, 0.67, 1073.87, 1081.08, 1081.58, 1091.47
2, 1, 12.53, -0.96, 0.48, 10.02, -0.39, -0.55, 1.11, -3.02, -2.91, 0.18, -4.55, -4.22,-0.35, 0.02, -4.50, -4.06,-0.42, -0.03, 0.65, 1073.61, 1081.30, 1081.40, 1091.70
2, 1, 12.53, -0.31, 0.48, 9.93, -0.17, -1.03, -0.47, -3.02, -2.89, 0.18, -4.58, -4.21,-0.36, -0.01, -4.70, -4.04,-0.42, -0.24, 0.66, 1073.38, 1081.45, 1081.23, 1091.94
2, 1, 12.54, -1.33, 0.49, 9.54, 0.36, -0.23, 0.20, -3.02, -2.91, 0.18, -4.53, -4.22,-0.36, 0.04, -4.24, -4.06,-0.42, 0.24, 0.66, 1073.89, 1081.04, 1081.64, 1091.43
2, 1, 12.54, -1.04, 1.00, 9.69, -0.13, -0.77, 0.40, -3.03, -2.90, 0.18, -4.47, -4.22,-0.36, 0.11, -4.61, -4.05,-0.42, -0.14, 0.66, 1073.58, 1081.48, 1081.21, 1091.73
2, 1, 12.55, -0.65, 0.00, 9.53, -0.10, 0.64, -0.14, -3.01, -2.90, 0.18, -4.82, -4.21,-0.36, -0.26, -4.50, -4.05,-0.42, -0.04, 0.65, 1073.33, 1081.03, 1081.67, 1091.98
2, 1, 12.55, -0.70, 0.76, 9.57, -0.07, 1.13, -0.47, -3.02, -2.90, 0.18, -4.39, -4.22,-0.36, 0.19, -4.37, -4.05,-0.42, 0.10, 0.66, 1073.90, 1081.31, 1081.36, 1091.42
2, 1, 12.56, -0.84, 0.24, 9.80, 0.12, -0.75, 0.40, -3.02, -2.90, 0.18, -4.70, -4.21,-0.36, -0.12, -4.50, -4.05,-0.42, -0.03, 0.65, 1073.46, 1081.15, 1081.54, 1091.85
2, 1, 12.56, -1.01, 0.60, 9.59, -0.07, -0.03, -0.22, -3.02, -2.90, 0.18, -4.49, -4.22,-0.36, 0.09, -4.43, -4.05,-0.42, 0.04, 0.66, 1073.73, 1081.28, 1081.40, 1091.59
2, 1, 12.56, -0.69, 0.32, 9.56, -0.32, 1.22, 0.24, -3.02, -2.90, 0.18, -4.67, -4.21,-0.36, -0.10, -4.45, -4.05,-0.42, 0.02, 0.66, 1073.53, 1081.13, 1081.56, 1091.78
2, 1, 12.57, -0.97, -0.10, 9.27, 0.61, 0.47, -0.38, -3.01, -2.91, 0.18, -4.63, -4.21,-0.36, -0.06, -4.37, -4.06,-0.42, 0.12, 0.66, 1073.66, 1081.08, 1081.60, 1091.66
2, 1, 12.57, -0.85, 0.62, 9.83, 0.12, -1.48, 1.02, -3.02, -2.90, 0.18, -4.40, -4.22,-0.37, 0.19, -4.65, -4.05,-0.43, -0.17, 0.65, 1075.60, 1083.60, 1083.10, 1093.69
2, 1, 12.57, -0.66, 0.05, 9.53, 0.48, -0.55, 0.06, -3.02, -2.90, 0.18, -4.68, -4.21,-0.37, -0.10, -4.56, -4.05,-0.43, -0.09, 0.64, 1075.41, 1083.24, 1083.48, 1093.88
2, 1, 12.58, -0.81, 0.96, 9.62, -0.98, 1.11, -0.55, -3.02, -2.90, 0.18, -4.44, -4.22,-0.37, 0.15, -4.35, -4.05,-0.43, 0.13, 0.66, 1075.86, 1083.25, 1083.44, 1093.45
2, 1, 12.58, -1.35, 0.24, 9.65, -0.00, -0.34, 0.43, -3.02, -2.91, 0.18, -4.76, -4.21,-0.37, -0.18, -4.39, -4.06,-0.43, 0.10, 0.65, 1075.50, 1082.98, 1083.72, 1093.79
2, 1, 12.59, -0.50, 0.85, 9.82, 0.65, -1.19, -0.15, -3.03, -2.89, 0.18, -4.39, -4.22,-0.37, 0.20, -4.78, -4.04,-0.43, -0.31, 0.65, 1075.48, 1083.74, 1082.96, 1093.82
2, 1, 12.59, -1.12, 0.05, 9.64, -0.10, 0.15, -0.00, -3.02, -2.90, 0.18, -4.78, -4.21,-0.37, -0.20, -4.31, -4.05,-0.43, 0.17, 0.65, 1096.55, 1103.88, 1104.82, 1114.75
2, 1, 12.60, -0.92, 0.91, 9.78, 0.38, -0.06, 0.33, -3.03, -2.90, 0.18, -4.36, -4.23,-0.37, 0.24, -4.54, -4.05,-0.43, -0.06, 0.65, 1096.75, 1104.54, 1104.17, 1114.54
2, 1, 12.60, -0.40, -0.18, 9.43, -0.69, 0.96, -0.28, -3.01, -2.90, 0.18, -4.90, -4.21,-0.37, -0.33, -4.52, -4.04,-0.43, -0.04, 0.65, 1096.23, 1103.97, 1104.74, 1115.07
2, 1, 12.60, -1.06, 0.68, 9.79, 0.52, -0.16, 0.52, -3.02, -2.90, 0.18, -4.34, -4.22,-0.37, 0.26, -4.35, -4.05,-0.43, 0.14, 0.64, 1096.96, 1104.36, 1104.35, 1114.33
2, 1, 12.61, -1.08, 0.00, 9.53, 0.03, 0.47, -0.23, -3.02, -2.91, 0.18, -4.75, -4.21,-0.37, -0.16, -4.44, -4.06,-0.43, 0.05, 0.64, 1096.46, 1104.05, 1104.67, 1114.83
2, 1, 12.61, -0.81, 0.67, 10.16, 0.12, -0.11, 0.41, -3.02, -2.90, 0.18, -4.43, -4.22,-0.38, 0.17, -4.58, -4.05,-0.44, -0.09, 0.64, 1096.63, 1104.51, 1104.21, 1114.65
2, 1, 12.61, -0.98, 0.15, 9.21, 0.16, -0.74, -0.35, -3.02, -2.90, 0.18, -4.70, -4.22,-0.38, -0.11, -4.48, -4.05,-0.44, 0.00, 0.64, 1096.46, 1104.14, 1104.57, 1114.83
2, 1, 12.62, -0.93, 0.15, 10.06, -0.46, 1.46, -0.11, -3.02, -2.91, 0.18, -4.63, -4.21,-0.38, -0.04, -4.41, -4.06,-0.44, 0.09, 0.64, 1096.61, 1104.13, 1104.58, 1114.68
2, 1, 12.62, -0.92, 0.67, 10.00, 0.12, 0.06, -0.20, -3.02, -2.91, 0.18, -4.46, -4.22,-0.38, 0.14, -4.49, -4.06,-0.44, 0.00, 0.65, 1096.69, 1104.38, 1104.32, 1114.61
2, 1, 12.63, -0.77, 0.33, 9.79, -0.25, -0.22, 0.14, -3.02, -2.90, 0.18, -4.70, -4.21,-0.38, -0.10, -4.54, -4.05,-0.44, -0.05, 0.65, 1096.41, 1104.20, 1104.51, 1114.89
2, 1, 12.63, -1.06, 0.23, 8.95, -0.54, -0.74, -0.00, -3.02, -2.91, 0.18, -4.65, -4.21,-0.38, -0.06, -4.46, -4.06,-0.44, 0.03, 0.65, 1096.53, 1104.16, 1104.54, 1114.77
2, 1, 12.64, -0.29, 0.96, 9.70, -0.10, -0.89, 0.85, -3.02, -2.89, 0.18, -4.44, -4.22,-0.38, 0.16, -4.77, -4.04,-0.44, -0.29, 0.64, 1096.43, 1104.69, 1104.04, 1114.84
2, 1, 12.64, -0.39, 0.80, 9.57, 0.19, 0.52, -0.35, -3.02, -2.90, 0.18, -4.62, -4.22,-0.38, -0.02, -4.42, -4.04,-0.44, 0.07, 0.64, 1096.60, 1104.15, 1104.56, 1114.68
2, 1, 12.64, -0.59, 0.08, 9.31, -0.52, 0.68, 0.56, -3.01, -2.90, 0.17, -4.81, -4.21,-0.38, -0.22, -4.38, -4.05,-0.44, 0.11, 0.63, 1096.44, 1103.94, 1104.80, 1114.83
2, 1, 12.65, -0.27, 0.37, 9.04, -1.00, 1.00, 0.09, -3.01, -2.90, 0.17, -4.67, -4.20,-0.39, -0.08, -4.42, -4.06,-0.44, 0.08, 0.63, 1096.54, 1104.12, 1104.62, 1114.72
2, 1, 12.65, -1.47, 0.73, 9.52, 0.81, 0.10, -0.41, -3.02, -2.92, 0.18, -4.44, -4.21,-0.39, 0.16, -4.22, -4.08,-0.45, 0.30, 0.64, 1096.98, 1104.14, 1104.58, 1114.30
2, 1, 12.66, -0.48, 0.92, 9.87, -0.92, -0.60, 0.17, -3.01, -2.90, 0.18, -4.63, -4.21,-0.39, -0.04, -4.80, -4.06,-0.45, -0.30, 0.64, 1096.20, 1104.53, 1104.20, 1115.07
2, 1, 12.66, -0.73, 0.96, 9.60, -0.05, 2.04, 0.18, -3.01, -2.92, 0.17, -4.59, -4.21,-0.39, 0.01, -4.20, -4.08,-0.45, 0.32, 0.63, 1096.84, 1103.98, 1104.75, 1114.42
2, 1, 12.67, -1.15, 0.04, 9.78, 0.35, -1.06, -0.32, -3.00, -2.92, 0.17, -4.78, -4.19,-0.39, -0.20, -4.52, -4.08,-0.45, 0.01, 0.64, 1096.34, 1104.09, 1104.63, 1114.94
2, 1, 12.67, -0.53, 0.90, 9.45, -0.54, 0.23, 1.07, -3.01, -2.91, 0.17, -4.42, -4.21,-0.39, 0.17, -4.65, -4.07,-0.45, -0.13, 0.62, 1096.55, 1104.60, 1104.16, 1114.69
2, 1, 12.68, -1.41, -0.47, 9.70, 0.47, -0.32, -0.61, -3.00, -2.92, 0.17, -4.88, -4.19,-0.39, -0.30, -4.35, -4.08,-0.45, 0.18, 0.63, 1096.40, 1103.84, 1104.91, 1114.85
2, 1, 12.68, -0.51, 1.34, 9.80, -0.29, 0.30, 0.30, -3.02, -2.91, 0.17, -4.19, -4.21,-0.39, 0.42, -4.72, -4.07,-0.45, -0.20, 0.63, 1096.72, 1104.90, 1103.84, 1114.54
2, 1, 12.69, -1.25, -0.08, 10.18, 0.38, -0.03, 0.49, -3.00, -2.92, 0.17, -4.90, -4.19,-0.39, -0.31, -4.36, -4.08,-0.45, 0.17, 0.62, 1096.35, 1103.85, 1104.92, 1114.88
2, 1, 12.69, -0.76, 0.67, 9.22, -0.57, -0.49, -0.52, -3.01, -2.92, 0.17, -4.45, -4.20,-0.39, 0.14, -4.66, -4.07,-0.45, -0.14, 0.63, 1097.51, 1105.58, 1105.16, 1115.74
2, 1, 12.69, -1.44, -0.05, 9.48, 0.81, 1.52, -0.43, -3.00, -2.93, 0.17, -4.71, -4.20,-0.40, -0.12, -4.25, -4.09,-0.45, 0.29, 0.63, 1097.67, 1104.92, 1105.82, 1115.59
2, 1, 12.70, -0.95, 0.67, 9.96, -0.68, 0.56, -0.67, -3.01, -2.93, 0.18, -4.49, -4.20,-0.40, 0.11, -4.62, -4.08,-0.46, -0.08, 0.64, 1097.53, 1105.49, 1105.22, 1115.76
2, 1, 12.70, -0.78, 0.49, 9.33, 0.45, 0.21, 0.99, -3.01, -2.92, 0.17, -4.60, -4.20,-0.40, 0.00, -4.55, -4.08,-0.46, -0.01, 0.63, 1097.48, 1105.32, 1105.42, 1115.78
2, 1, 12.70, -0.63, 0.32, 9.54, -0.63, 0.44, -1.01, -3.01, -2.92, 0.18, -4.69, -4.20,-0.40, -0.10, -4.55, -4.08,-0.46, -0.00, 0.64, 1097.40, 1105.21, 1105.50, 1115.88
2, 1, 12.71, -1.01, 0.91, 9.53, -0.05, 1.16, 0.17, -3.01, -2.93, 0.18, -4.46, -4.21,-0.40, 0.14, -4.37, -4.10,-0.46, 0.19, 0.64, 1096.82, 1104.26, 1104.45, 1114.47
2, 1, 12.71, -0.38, 0.42, 9.26, -0.46, -0.20, 0.35, -3.00, -2.93, 0.18, -4.75, -4.19,-0.40, -0.16, -4.71, -4.08,-0.46, -0.17, 0.64, 1096.17, 1104.32, 1104.40, 1115.10
2, 1, 12.72, -0.79, -0.05, 9.69, -0.34, -0.06, -0.37, -3.00, -2.93, 0.18, -4.74, -4.19,-0.40, -0.15, -4.46, -4.09,-0.46, 0.09, 0.64, 1096.45, 1104.08, 1104.64, 1114.84
2, 1, 12.72, -1.06, 0.15, 9.48, -0.48, 0.04, 0.18, -3.00, -2.93, 0.18, -4.58, -4.19,-0.40, 0.01, -4.48, -4.10,-0.46, 0.08, 0.64, 1096.58, 1104.27, 1104.46, 1114.70
2, 1, 12.73, -0.70, 0.26, 9.56, 0.87, 0.30, -0.09, -3.00, -2.93, 0.18, -4.50, -4.19,-0.40, 0.10, -4.62, -4.09,-0.46, -0.07, 0.64, 1096.52, 1104.48, 1104.24, 1114.76
2, 1, 12.73, -0.69, 0.33, 9.83, -0.03, 0.53, 0.01, -3.00, -2.93, 0.18, -4.58, -4.19,-0.41, 0.01, -4.52, -4.09,-0.46, 0.04, 0.64, 1096.53, 1104.30, 1104.42, 1114.75
2, 1, 12.73, -0.64, 0.47, 9.74, -0.34, 0.01, 0.07, -3.00, -2.93, 0.18, -4.59, -4.19,-0.41, 0.00, -4.57, -4.09,-0.46, -0.01, 0.64, 1096.48, 1104.34, 1104.38, 1114.80
2, 1, 12.74, -1.15, 0.15, 10.08, -0.00, -0.43, -0.06, -3.00, -2.94, 0.18, -4.68, -4.19,-0.41, -0.08, -4.48, -4.10,-0.47, 0.08, 0.64, 1096.48, 1104.17, 1104.55, 1114.80
2, 1, 12.74, -1.08, 0.52, 9.39, 0.48, 0.04, 0.09, -3.01, -2.94, 0.18, -4.47, -4.20,-0.41, 0.14, -4.56, -4.10,-0.47, 0.00, 0.64, 1096.61, 1104.45, 1104.27, 1114.67
2, 1, 12.74, -0.38, 0.42, 9.84, 0.15, -0.69, 0.33, -3.01, -2.92, 0.17, -4.63, -4.20,-0.41, -0.02, -4.79, -4.08,-0.47, -0.24, 0.63, 1096.22, 1104.53, 1104.20, 1115.05
2, 1, 12.75, -1.22, 0.18, 9.28, 0.03, -0.11, 0.38, -3.00, -2.93, 0.17, -4.66, -4.19,-0.41, -0.05, -4.36, -4.10,-0.47, 0.21, 0.63, 1097.62, 1105.07, 1105.67, 1115.64
2, 1, 12.75, -1.05, 0.82, 10.25, -0.34, 1.29, 0.24, -3.01, -2.94, 0.17, -4.49, -4.20,-0.41, 0.12, -4.53, -4.10,-0.47, 0.04, 0.63, 1097.60, 1105.41, 1105.34, 1115.65
2, 1, 12.76, -0.85, 0.55, 9.65, 0.35, -1.39, 0.72, -3.01, -2.93, 0.17, -4.64, -4.20,-0.41, -0.03, -4.71, -4.09,-0.47, -0.15, 0.62, 1097.27, 1105.46, 1105.31, 1115.97
2, 1, 12.76, -0.63, 0.29, 9.39, -0.02, -0.81, 0.27, -3.00, -2.92, 0.17, -4.67, -4.19,-0.41, -0.07, -4.67, -4.08,-0.47, -0.12, 0.61, 1097.27, 1105.39, 1105.39, 1115.96
2, 1, 12.77, -1.00, 0.71, 9.47, -0.26, 0.96, -0.60, -3.01, -2.93, 0.17, -4.53, -4.20,-0.41, 0.09, -4.40, -4.09,-0.47, 0.17, 0.62, 1097.70, 1105.24, 1105.51, 1115.55
2, 1, 12.77, -1.33, 0.17, 9.80, -0.58, 0.21, -0.70, -3.00, -2.94, 0.17, -4.79, -4.19,-0.42, -0.19, -4.48, -4.10,-0.47, 0.09, 0.63, 1095.36, 1103.06, 1103.67, 1113.90
2, 1, 12.77, -0.59, -0.11, 9.02, 0.56, 0.50, -0.64, -3.00, -2.93, 0.18, -4.63, -4.19,-0.42, -0.03, -4.69, -4.09,-0.48, -0.12, 0.64, 1095.32, 1103.42, 1103.30, 1113.96
2, 1, 12.78, -0.98, 0.46, 9.26, 0.64, -0.09, -0.52, -3.01, -2.93, 0.18, -4.42, -4.20,-0.42, 0.20, -4.49, -4.10,-0.48, 0.09, 0.65, 1095.75, 1103.42, 1103.28, 1113.55
2, 1, 12.78, -0.56, 1.05, 10.24, -0.37, -0.98, 0.50, -3.01, -2.92, 0.18, -4.53, -4.21,-0.42, 0.09, -4.76, -4.08,-0.48, -0.20, 0.64, 1095.35, 1103.59, 1103.12, 1113.93
2, 1, 12.78, -0.94, -0.18, 9.12, -1.00, 0.49, 0.03, -2.99, -2.93, 0.18, -4.98, -4.18,-0.42, -0.38, -4.41, -4.09,-0.48, 0.16, 0.64, 1095.25, 1102.80, 1103.92, 1114.03
2, 1, 12.79, -1.46, 0.93, 9.71, 0.50, -0.11, -0.25, -3.01, -2.94, 0.18, -4.30, -4.20,-0.42, 0.32, -4.48, -4.10,-0.48, 0.10, 0.65, 1096.86, 1104.53, 1104.17, 1114.43
2, 1, 12.79, -0.68, 0.51, 10.07, -0.10, -0.77, 0.41, -3.00, -2.92, 0.18, -4.73, -4.19,-0.42, -0.12, -4.82, -4.08,-0.48, -0.26, 0.64, 1096.09, 1104.45, 1104.28, 1115.19
2, 1, 12.80, -0.70, 0.20, 9.28, 0.24, 1.61, -0.18, -3.00, -2.93, 0.18, -4.66, -4.19,-0.42, -0.05, -4.42, -4.09,-0.48, 0.15, 0.64, 1096.56, 1104.12, 1104.60, 1114.72
2, 1, 12.80, -0.76, 0.31, 9.51, -0.46, 0.70, 0.03, -3.00, -2.94, 0.18, -4.63, -4.19,-0.42, -0.01, -4.51, -4.10,-0.48, 0.07, 0.64, 1096.51, 1104.24, 1104.48, 1114.78
2, 1, 12.81, -1.30, 1.15, 10.01, 0.84, -1.96, 0.78, -3.01, -2.93, 0.17, -4.37, -4.21,-0.42, 0.26, -4.63, -4.09,-0.48, -0.05, 0.63, 1096.64, 1104.63, 1104.11, 1114.63
2, 1, 12.81, -0.44, 0.72, 10.10, -0.58, -1.67, 1.24, -3.01, -2.92, 0.17, -4.78, -4.20,-0.43, -0.15, -4.90, -4.07,-0.48, -0.34, 0.61, 1095.94, 1104.51, 1104.27, 1115.29
2, 1, 12.81, -0.73, 0.03, 9.63, -0.46, -0.45, -0.20, -3.00, -2.92, 0.17, -4.81, -4.18,-0.43, -0.20, -4.52, -4.07,-0.49, 0.04, 0.61, 1096.28, 1104.09, 1104.68, 1114.95
2, 1, 12.82, -1.71, 0.83, 10.19, 0.12, 1.10, -0.51, -3.01, -2.93, 0.17, -4.43, -4.20,-0.43, 0.20, -4.28, -4.10,-0.49, 0.31, 0.63, 1096.93, 1104.22, 1104.52, 1114.33
2, 1, 12.82, -0.91, 0.77, 9.90, 0.79, 0.42, 0.66, -3.01, -2.93, 0.17, -4.58, -4.20,-0.43, 0.06, -4.72, -4.09,-0.49, -0.14, 0.61, 1096.32, 1104.53, 1104.25, 1114.90
2, 1, 12.82, -0.57, -0.20, 8.85, 0.47, 0.06, -0.25, -3.00, -2.92, 0.17, -4.82, -4.19,-0.43, -0.20, -4.63, -4.08,-0.49, -0.06, 0.61, 1096.17, 1104.19, 1104.58, 1115.06
2, 1, 12.83, -0.33, 0.22, 9.41, -0.97, 2.03, 0.14, -3.00, -2.93, 0.17, -4.59, -4.19,-0.43, 0.03, -4.48, -4.09,-0.49, 0.10, 0.61, 1095.55, 1103.27, 1103.50, 1113.68
2, 1, 12.83, -1.02, -0.10, 9.80, -0.22, -0.60, -0.44, -3.00, -2.93, 0.17, -4.71, -4.18,-0.43, -0.10, -4.47, -4.10,-0.49, 0.11, 0.62, 1095.43, 1103.14, 1103.62, 1113.81
2, 1, 12.84, -0.26, 0.28, 9.68, 0.93, -2.13, 0.53, -3.00, -2.92, 0.17, -4.46, -4.19,-0.43, 0.17, -4.93, -4.07,-0.49, -0.36, 0.61, 1095.23, 1103.86, 1102.92, 1114.00
2, 1, 12.84, -0.66, 0.48, 9.50, -0.10, -0.35, -0.34, -3.01, -2.92, 0.17, -4.59, -4.20,-0.43, 0.04, -4.50, -4.08,-0.49, 0.07, 0.62, 1095.54, 1103.29, 1103.47, 1113.70
2, 1, 12.85, -0.54, 0.46, 9.20, -0.87, 1.84, -0.09, -3.00, -2.93, 0.17, -4.70, -4.19,-0.44, -0.07, -4.45, -4.09,-0.49, 0.13, 0.62, 1095.47, 1103.13, 1103.63, 1113.77
2, 1, 12.85, -0.81, 0.69, 9.96, 0.35, -0.54, 0.41, -3.01, -2.93, 0.17, -4.56, -4.20,-0.44, 0.07, -4.57, -4.09,-0.49, 0.00, 0.62, 1096.48, 1104.40, 1104.37, 1114.75
2, 1, 12.85, -0.95, 0.44, 9.06, 0.13, 0.87, -0.17, -3.00, -2.93, 0.17, -4.67, -4.19,-0.44, -0.04, -4.46, -4.09,-0.50, 0.13, 0.62, 1096.48, 1104.17, 1104.59, 1114.75
2, 1, 12.86, -0.87, 0.58, 9.67, 0.01, 1.80, -0.44, -3.01, -2.94, 0.17, -4.61, -4.20,-0.44, 0.03, -4.48, -4.10,-0.50, 0.12, 0.62, 1096.53, 1104.25, 1104.50, 1114.71
2, 1, 12.86, -0.94, 0.14, 9.32, -0.19, 0.30, 0.15, -3.00, -2.94, 0.17, -4.75, -4.19,-0.44, -0.12, -4.55, -4.11,-0.50, 0.05, 0.62, 1096.32, 1104.18, 1104.58, 1114.92
2, 1, 12.86, -0.90, -0.13, 8.83, 1.25, 0.03, 0.26, -3.00, -2.94, 0.17, -4.60, -4.19,-0.44, 0.03, -4.60, -4.11,-0.50, 0.00, 0.61, 1096.42, 1104.38, 1104.39, 1114.81
2, 1, 12.87, -0.93, 0.35, 9.11, -0.10, 1.10, -0.37, -3.01, -2.94, 0.17, -4.52, -4.20,-0.44, 0.12, -4.52, -4.11,-0.50, 0.09, 0.62, 1097.58, 1105.38, 1105.38, 1115.66
2, 1, 12.87, -0.92, 0.16, 9.37, 0.06, 0.42, -0.02, -3.01, -2.95, 0.17, -4.69, -4.20,-0.44, -0.05, -4.59, -4.11,-0.50, 0.03, 0.62, 1097.35, 1105.28, 1105.47, 1115.90
